%time,field.header.seq,field.header.stamp,field.header.frame_id,field.name0,field.name1,field.name2,field.name3,field.name4,field.position0,field.position1,field.position2,field.position3,field.position4,field.velocity0,field.velocity1,field.velocity2,field.velocity3,field.velocity4,field.effort0,field.effort1,field.effort2,field.effort3,field.effort4
222631000000,11113,222631000000,,end,joint2,joint4,joint6,motortom2m,-3.604165854653729e-10,6.292522058970462e-10,5.981020123613234e-10,-5.203881769944019e-10,5.977165429271736e-10,1.2120805275575226e-12,-7.161264022923588e-13,-2.769140378659349e-13,1.7132349695369123e-13,-9.364633504297867e-13,0.0,0.0,0.0,0.0,0.0
222651000000,11114,222651000000,,end,joint2,joint4,joint6,motortom2m,-3.604156972869532e-10,6.292522058970462e-10,5.981020123613234e-10,-5.203872888159822e-10,5.97718319284013e-10,1.2120805283200525e-12,-7.161264009792864e-13,-2.769140366123417e-13,1.7132349804948522e-13,-9.36463349186296e-13,0.0,0.0,0.0,0.0,0.0
222671000000,11115,222671000000,,end,joint2,joint4,joint6,motortom2m,-3.604165854653729e-10,6.292522058970462e-10,5.98100236004484e-10,-5.203881769944019e-10,5.977165429271736e-10,1.2120805273031313e-12,-7.161264027302682e-13,-2.7691403828397677e-13,1.7132349658821937e-13,-9.364633508444906e-13,0.0,0.0,0.0,0.0,0.0
222691000000,11116,222691000000,,end,joint2,joint4,joint6,motortom2m,-3.604165854653729e-10,6.292522058970462e-10,5.98100236004484e-10,-5.203881769944019e-10,5.97718319284013e-10,1.212080527302635e-12,-7.161264027308619e-13,-2.7691403828458484e-13,1.7132349658761918e-13,-9.3646335084487e-13,0.0,0.0,0.0,0.0,0.0
222711000000,11117,222711000000,,end,joint2,joint4,joint6,motortom2m,-3.604165854653729e-10,6.292522058970462e-10,5.981020123613234e-10,-5.203881769944019e-10,5.977165429271736e-10,1.2120805283184052e-12,-7.161264009821219e-13,-2.7691403661509424e-13,1.7132349804699782e-13,-9.364633491891695e-13,0.0,0.0,0.0,0.0,0.0
222731000000,11118,222731000000,,end,joint2,joint4,joint6,motortom2m,-3.604156972869532e-10,6.292522058970462e-10,5.981020123613234e-10,-5.203881769944019e-10,5.97718319284013e-10,1.2120805288279371e-12,-7.161264001048745e-13,-2.7691403577751087e-13,1.7132349877920695e-13,-9.36463348358408e-13,0.0,0.0,0.0,0.0,0.0
222751000000,11119,222751000000,,end,joint2,joint4,joint6,motortom2m,-3.604165854653729e-10,6.292522058970462e-10,5.981020123613234e-10,-5.203881769944019e-10,5.977165429271736e-10,1.212080528826022e-12,-7.161264001086422e-13,-2.769140357809137e-13,1.7132349877637058e-13,-9.364633483622886e-13,0.0,0.0,0.0,0.0,0.0
222771000000,11120,222771000000,,end,joint2,joint4,joint6,motortom2m,-3.604165854653729e-10,6.292522058970462e-10,5.981020123613234e-10,-5.203881769944019e-10,5.97718319284013e-10,1.2120805280672955e-12,-7.161264014147673e-13,-2.7691403702793633e-13,1.7132349768620167e-13,-9.36463349598856e-13,0.0,0.0,0.0,0.0,0.0
222791000000,11121,222791000000,,end,joint2,joint4,joint6,motortom2m,-3.604156972869532e-10,6.292522058970462e-10,5.981020123613234e-10,-5.203872888159822e-10,5.977165429271736e-10,1.2120805288295358e-12,-7.161264001027504e-13,-2.769140357751721e-13,1.7132349878142798e-13,-9.36463348356818e-13,0.0,0.0,0.0,0.0,0.0
222811000000,11122,222811000000,,end,joint2,joint4,joint6,motortom2m,-3.604165854653729e-10,6.292504295402068e-10,5.981020123613234e-10,-5.203881769944019e-10,5.97718319284013e-10,1.2120805285741765e-12,-7.161264005420618e-13,-2.7691403619466496e-13,1.7132349841462406e-13,-9.364633487725917e-13,0.0,0.0,0.0,0.0,0.0
222831000000,11123,222831000000,,end,joint2,joint4,joint6,motortom2m,-3.604165854653729e-10,6.292504295402068e-10,5.981020123613234e-10,-5.203881769944019e-10,5.977165429271736e-10,1.2120805293370135e-12,-7.161263992291622e-13,-2.7691403494099903e-13,1.7132349951069674e-13,-9.364633475297535e-13,0.0,0.0,0.0,0.0,0.0
222851000000,11124,222851000000,,end,joint2,joint4,joint6,motortom2m,-3.604156972869532e-10,6.292504295402068e-10,5.98100236004484e-10,-5.203881769944019e-10,5.977165429271736e-10,1.2120805288306893e-12,-7.161264001006836e-13,-2.7691403577310375e-13,1.7132349878322875e-13,-9.364633483547989e-13,0.0,0.0,0.0,0.0,0.0
222871000000,11125,222871000000,,end,joint2,joint4,joint6,motortom2m,-3.604156972869532e-10,6.292504295402068e-10,5.981020123613234e-10,-5.203881769944019e-10,5.97718319284013e-10,1.212080528574636e-12,-7.161264005411311e-13,-2.7691403619386827e-13,1.7132349841519982e-13,-9.364633487715408e-13,0.0,0.0,0.0,0.0,0.0
222891000000,11126,222891000000,,end,joint2,joint4,joint6,motortom2m,-3.604165854653729e-10,6.292504295402068e-10,5.981020123613234e-10,-5.203881769944019e-10,5.977165429271736e-10,1.2120805275590639e-12,-7.161264022899847e-13,-2.7691403786340995e-13,1.7132349695581977e-13,-9.364633504277642e-13,0.0,0.0,0.0,0.0,0.0
222911000000,11127,222911000000,,end,joint2,joint4,joint6,motortom2m,-3.604165854653729e-10,6.292504295402068e-10,5.981020123613234e-10,-5.203881769944019e-10,5.97718319284013e-10,1.2120805278131707e-12,-7.161264018522959e-13,-2.769140374455555e-13,1.713234973210495e-13,-9.364633500131603e-13,0.0,0.0,0.0,0.0,0.0
222931000000,11128,222931000000,,end,joint2,joint4,joint6,motortom2m,-3.604156972869532e-10,6.292522058970462e-10,5.981020123613234e-10,-5.203872888159822e-10,5.977165429271736e-10,1.2120805288304373e-12,-7.161264001009159e-13,-2.769140357737128e-13,1.7132349878268147e-13,-9.36463348354808e-13,0.0,0.0,0.0,0.0,0.0
222951000000,11129,222951000000,,end,joint2,joint4,joint6,motortom2m,-3.604165854653729e-10,6.292522058970462e-10,5.981020123613234e-10,-5.203881769944019e-10,5.97718319284013e-10,1.21208052730607e-12,-7.161264027249569e-13,-2.769140382790854e-13,1.7132349659240536e-13,-9.364633508392126e-13,0.0,0.0,0.0,0.0,0.0
222971000000,11130,222971000000,,end,joint2,joint4,joint6,motortom2m,-3.604165854653729e-10,6.292522058970462e-10,5.981020123613234e-10,-5.203881769944019e-10,5.977165429271736e-10,1.2120805288281338e-12,-7.161264001048674e-13,-2.7691403577740686e-13,1.7132349877945938e-13,-9.364633483586288e-13,0.0,0.0,0.0,0.0,0.0
222991000000,11131,222991000000,,end,joint2,joint4,joint6,motortom2m,-3.604156972869532e-10,6.292522058970462e-10,5.981020123613234e-10,-5.203881769944019e-10,5.97718319284013e-10,1.2120805285764048e-12,-7.161264005381097e-13,-2.769140361910511e-13,1.713234984178205e-13,-9.364633487686927e-13,0.0,0.0,0.0,0.0,0.0
223011000000,11132,223011000000,,end,joint2,joint4,joint6,motortom2m,-3.604165854653729e-10,6.292522058970462e-10,5.98100236004484e-10,-5.203881769944019e-10,5.977165429271736e-10,1.2120805278114442e-12,-7.161264018552234e-13,-2.769140374484757e-13,1.7132349731863096e-13,-9.364633500160554e-13,0.0,0.0,0.0,0.0,0.0
223031000000,11133,223031000000,,end,joint2,joint4,joint6,motortom2m,-3.604165854653729e-10,6.292522058970462e-10,5.98100236004484e-10,-5.203881769944019e-10,5.97718319284013e-10,1.212080527049053e-12,-7.161264031674917e-13,-2.76914038701413e-13,1.713234962232441e-13,-9.36463351258405e-13,0.0,0.0,0.0,0.0,0.0
223051000000,11134,223051000000,,end,joint2,joint4,joint6,motortom2m,-3.604165854653729e-10,6.292522058970462e-10,5.981020123613234e-10,-5.203881769944019e-10,5.977165429271736e-10,1.212080528829906e-12,-7.161264001017626e-13,-2.769140357744665e-13,1.7132349878194093e-13,-9.364633483557388e-13,0.0,0.0,0.0,0.0,0.0
223071000000,11135,223071000000,,end,joint2,joint4,joint6,motortom2m,-3.604156972869532e-10,6.292522058970462e-10,5.981020123613234e-10,-5.203872888159822e-10,5.977165429271736e-10,1.2120805280649604e-12,-7.161264014184843e-13,-2.7691403703164713e-13,1.7132349768284407e-13,-9.364633496023207e-13,0.0,0.0,0.0,0.0,0.0
223091000000,11136,223091000000,,end,joint2,joint4,joint6,motortom2m,-3.604165854653729e-10,6.292522058970462e-10,5.981020123613234e-10,-5.203881769944019e-10,5.97718319284013e-10,1.212080528573409e-12,-7.161264005432741e-13,-2.769140361959542e-13,1.7132349841344852e-13,-9.3646334877353e-13,0.0,0.0,0.0,0.0,0.0
223111000000,11137,223111000000,,end,joint2,joint4,joint6,motortom2m,-3.604165854653729e-10,6.292522058970462e-10,5.981020123613234e-10,-5.203881769944019e-10,5.977165429271736e-10,1.2120805280647693e-12,-7.161264014192317e-13,-2.7691403703214494e-13,1.713234976825357e-13,-9.364633496032063e-13,0.0,0.0,0.0,0.0,0.0
223131000000,11138,223131000000,,end,joint2,joint4,joint6,motortom2m,-3.604156972869532e-10,6.292504295402068e-10,5.981020123613234e-10,-5.203881769944019e-10,5.97718319284013e-10,1.2120805273009496e-12,-7.16126402733872e-13,-2.7691403828737374e-13,1.7132349658512189e-13,-9.364633508477835e-13,0.0,0.0,0.0,0.0,0.0
223151000000,11139,223151000000,,end,joint2,joint4,joint6,motortom2m,-3.604165854653729e-10,6.292504295402068e-10,5.981020123613234e-10,-5.203881769944019e-10,5.977165429271736e-10,1.2120805288269642e-12,-7.16126400107171e-13,-2.7691403577932436e-13,1.7132349877779917e-13,-9.3646334836098e-13,0.0,0.0,0.0,0.0,0.0
223171000000,11140,223171000000,,end,joint2,joint4,joint6,motortom2m,-3.604165854653729e-10,6.292504295402068e-10,5.981020123613234e-10,-5.203881769944019e-10,5.97718319284013e-10,1.2120805278102683e-12,-7.161264018572271e-13,-2.769140374502492e-13,1.7132349731700305e-13,-9.36463350017848e-13,0.0,0.0,0.0,0.0,0.0
223191000000,11141,223191000000,,end,joint2,joint4,joint6,motortom2m,-3.604156972869532e-10,6.292504295402068e-10,5.98100236004484e-10,-5.203881769944019e-10,5.977165429271736e-10,1.2120805278103568e-12,-7.161264018574121e-13,-2.7691403745027565e-13,1.7132349731708e-13,-9.364633500183037e-13,0.0,0.0,0.0,0.0,0.0
223211000000,11142,223211000000,,end,joint2,joint4,joint6,motortom2m,-3.604156972869532e-10,6.292504295402068e-10,5.981020123613234e-10,-5.203872888159822e-10,5.97718319284013e-10,1.2120805283201678e-12,-7.161264009791248e-13,-2.7691403661206017e-13,1.7132349804957044e-13,-9.364633491863275e-13,0.0,0.0,0.0,0.0,0.0
223231000000,11143,223231000000,,end,joint2,joint4,joint6,motortom2m,-3.604165854653729e-10,6.292504295402068e-10,5.981020123613234e-10,-5.203881769944019e-10,5.977165429271736e-10,1.2120805290825161e-12,-7.161263996671544e-13,-2.7691403535925394e-13,1.713234991449151e-13,-9.364633479443913e-13,0.0,0.0,0.0,0.0,0.0
223251000000,11144,223251000000,,end,joint2,joint4,joint6,motortom2m,-3.604165854653729e-10,6.292522058970462e-10,5.981020123613234e-10,-5.203881769944019e-10,5.97718319284013e-10,1.2120805290830658e-12,-7.161263996656284e-13,-2.7691403535825005e-13,1.7132349914577034e-13,-9.364633479424633e-13,0.0,0.0,0.0,0.0,0.0
223271000000,11145,223271000000,,end,joint2,joint4,joint6,motortom2m,-3.604156972869532e-10,6.292522058970462e-10,5.981020123613234e-10,-5.203881769944019e-10,5.977165429271736e-10,1.2120805280658481e-12,-7.161264014171081e-13,-2.7691403703036496e-13,1.713234976840808e-13,-9.364633496011264e-13,0.0,0.0,0.0,0.0,0.0
223291000000,11146,223291000000,,end,joint2,joint4,joint6,motortom2m,-3.604165854653729e-10,6.292522058970462e-10,5.981020123613234e-10,-5.203881769944019e-10,5.977165429271736e-10,1.2120805273059492e-12,-7.161264027251936e-13,-2.769140382792752e-13,1.713234965922446e-13,-9.364633508395362e-13,0.0,0.0,0.0,0.0,0.0
223311000000,11147,223311000000,,end,joint2,joint4,joint6,motortom2m,-3.604165854653729e-10,6.292522058970462e-10,5.981020123613234e-10,-5.203881769944019e-10,5.97718319284013e-10,1.2120805273027362e-12,-7.161264027306699e-13,-2.769140382844782e-13,1.7132349658768744e-13,-9.364633508445942e-13,0.0,0.0,0.0,0.0,0.0
223331000000,11148,223331000000,,end,joint2,joint4,joint6,motortom2m,-3.604156972869532e-10,6.292522058970462e-10,5.981020123613234e-10,-5.203881769944019e-10,5.977165429271736e-10,1.2120805283213096e-12,-7.16126400977592e-13,-2.769140366105209e-13,1.713234980512052e-13,-9.36463349184991e-13,0.0,0.0,0.0,0.0,0.0
223351000000,11149,223351000000,,end,joint2,joint4,joint6,motortom2m,-3.604165854653729e-10,6.292522058970462e-10,5.98100236004484e-10,-5.203872888159822e-10,5.97718319284013e-10,1.2120805278117853e-12,-7.161264018543439e-13,-2.7691403744771615e-13,1.7132349731919217e-13,-9.364633500149237e-13,0.0,0.0,0.0,0.0,0.0
223371000000,11150,223371000000,,end,joint2,joint4,joint6,motortom2m,-3.604165854653729e-10,6.292522058970462e-10,5.98100236004484e-10,-5.203881769944019e-10,5.977165429271736e-10,1.2120805288297737e-12,-7.161264001022427e-13,-2.7691403577470035e-13,1.7132349878187974e-13,-9.364633483562384e-13,0.0,0.0,0.0,0.0,0.0
223391000000,11151,223391000000,,end,joint2,joint4,joint6,motortom2m,-3.604165854653729e-10,6.292522058970462e-10,5.981020123613234e-10,-5.203881769944019e-10,5.97718319284013e-10,1.2120805275580047e-12,-7.161264022912136e-13,-2.769140378649187e-13,1.7132349695437745e-13,-9.364633504285538e-13,0.0,0.0,0.0,0.0,0.0
223411000000,11152,223411000000,,end,joint2,joint4,joint6,motortom2m,-3.604156972869532e-10,6.292522058970462e-10,5.981020123613234e-10,-5.203881769944019e-10,5.977165429271736e-10,1.2120805288293746e-12,-7.161264001029786e-13,-2.7691403577547543e-13,1.713234987811293e-13,-9.364633483569335e-13,0.0,0.0,0.0,0.0,0.0
223431000000,11153,223431000000,,end,joint2,joint4,joint6,motortom2m,-3.604165854653729e-10,6.292522058970462e-10,5.981020123613234e-10,-5.203881769944019e-10,5.97718319284013e-10,1.212080527559573e-12,-7.161264022888011e-13,-2.7691403786244383e-13,1.713234969566318e-13,-9.364633504264146e-13,0.0,0.0,0.0,0.0,0.0
223451000000,11154,223451000000,,end,joint2,joint4,joint6,motortom2m,-3.604165854653729e-10,6.292504295402068e-10,5.981020123613234e-10,-5.203881769944019e-10,5.977165429271736e-10,1.2120805288277988e-12,-7.161264001057126e-13,-2.7691403577799554e-13,1.713234987789434e-13,-9.364633483596087e-13,0.0,0.0,0.0,0.0,0.0
223471000000,11155,223471000000,,end,joint2,joint4,joint6,motortom2m,-3.604156972869532e-10,6.292504295402068e-10,5.981020123613234e-10,-5.203881769944019e-10,5.97718319284013e-10,1.2120805295925028e-12,-7.161263987891385e-13,-2.769140345209708e-13,1.7132349987782094e-13,-9.364633471128587e-13,0.0,0.0,0.0,0.0,0.0
223491000000,11156,223491000000,,end,joint2,joint4,joint6,motortom2m,-3.604165854653729e-10,6.292504295402068e-10,5.981020123613234e-10,-5.203872888159822e-10,5.977165429271736e-10,1.2120805290823966e-12,-7.161263996674332e-13,-2.7691403535946497e-13,1.7132349914482522e-13,-9.364633479447023e-13,0.0,0.0,0.0,0.0,0.0
223511000000,11157,223511000000,,end,joint2,joint4,joint6,motortom2m,-3.604165854653729e-10,6.292504295402068e-10,5.981020123613234e-10,-5.203881769944019e-10,5.97718319284013e-10,1.212080528064881e-12,-7.161264014188392e-13,-2.769140370316972e-13,1.713234976828683e-13,-9.364633496028365e-13,0.0,0.0,0.0,0.0,0.0
223531000000,11158,223531000000,,end,joint2,joint4,joint6,motortom2m,-3.604156972869532e-10,6.292504295402068e-10,5.98100236004484e-10,-5.203881769944019e-10,5.97718319284013e-10,1.2120805278123443e-12,-7.161264018537629e-13,-2.7691403744685303e-13,1.7132349731998745e-13,-9.364633500145616e-13,0.0,0.0,0.0,0.0,0.0
223551000000,11159,223551000000,,end,joint2,joint4,joint6,motortom2m,-3.604156972869532e-10,6.292504295402068e-10,5.981020123613234e-10,-5.203881769944019e-10,5.977165429271736e-10,1.2120805278128444e-12,-7.161264018529082e-13,-2.7691403744616277e-13,1.713234973205016e-13,-9.364633500138605e-13,0.0,0.0,0.0,0.0,0.0
223571000000,11160,223571000000,,end,joint2,joint4,joint6,motortom2m,-3.604165854653729e-10,6.292522058970462e-10,5.981020123613234e-10,-5.203881769944019e-10,5.97718319284013e-10,1.212080527559044e-12,-7.161264022893545e-13,-2.7691403786328737e-13,1.7132349695585248e-13,-9.364633504266503e-13,0.0,0.0,0.0,0.0,0.0
223591000000,11161,223591000000,,end,joint2,joint4,joint6,motortom2m,-3.604165854653729e-10,6.292522058970462e-10,5.981020123613234e-10,-5.203881769944019e-10,5.977165429271736e-10,1.2120805283190963e-12,-7.161264009811148e-13,-2.7691403661411136e-13,1.7132349804796131e-13,-9.364633491881969e-13,0.0,0.0,0.0,0.0,0.0
223611000000,11162,223611000000,,end,joint2,joint4,joint6,motortom2m,-3.604156972869532e-10,6.292522058970462e-10,5.981020123613234e-10,-5.203881769944019e-10,5.97718319284013e-10,1.2120805295957189e-12,-7.16126398783432e-13,-2.7691403451578194e-13,1.7132349988236882e-13,-9.364633471072074e-13,0.0,0.0,0.0,0.0,0.0
223631000000,11163,223631000000,,end,joint2,joint4,joint6,motortom2m,-3.604165854653729e-10,6.292522058970462e-10,5.981020123613234e-10,-5.203872888159822e-10,5.977165429271736e-10,1.212080528828994e-12,-7.161264001033849e-13,-2.769140357759928e-13,1.7132349878066885e-13,-9.364633483572102e-13,0.0,0.0,0.0,0.0,0.0
223651000000,11164,223651000000,,end,joint2,joint4,joint6,motortom2m,-3.604165854653729e-10,6.292522058970462e-10,5.981020123613234e-10,-5.203881769944019e-10,5.97718319284013e-10,1.2120805288304005e-12,-7.161264001007943e-13,-2.769140357735335e-13,1.71323498782777e-13,-9.36463348354595e-13,0.0,0.0,0.0,0.0,0.0
223671000000,11165,223671000000,,end,joint2,joint4,joint6,motortom2m,-3.604156972869532e-10,6.292522058970462e-10,5.981020123613234e-10,-5.203881769944019e-10,5.977165429271736e-10,1.2120805285743136e-12,-7.161264005418952e-13,-2.7691403619456277e-13,1.71323498414782e-13,-9.3646334877251e-13,0.0,0.0,0.0,0.0,0.0
223691000000,11166,223691000000,,end,joint2,joint4,joint6,motortom2m,-3.604156972869532e-10,6.292522058970462e-10,5.98100236004484e-10,-5.203881769944019e-10,5.97718319284013e-10,1.2120805280647978e-12,-7.161264014187483e-13,-2.7691403703180465e-13,1.7132349768277763e-13,-9.364633496025695e-13,0.0,0.0,0.0,0.0,0.0
223711000000,11167,223711000000,,end,joint2,joint4,joint6,motortom2m,-3.604165854653729e-10,6.292522058970462e-10,5.98100236004484e-10,-5.203881769944019e-10,5.977165429271736e-10,1.2120805283228743e-12,-7.161264009752058e-13,-2.7691403660804907e-13,1.7132349805344441e-13,-9.364633491829715e-13,0.0,0.0,0.0,0.0,0.0
223731000000,11168,223731000000,,end,joint2,joint4,joint6,motortom2m,-3.604165854653729e-10,6.292522058970462e-10,5.981020123613234e-10,-5.203881769944019e-10,5.97718319284013e-10,1.2120805283215063e-12,-7.161264009769038e-13,-2.7691403661000817e-13,1.7132349805145442e-13,-9.364633491842112e-13,0.0,0.0,0.0,0.0,0.0
223751000000,11169,223751000000,,end,joint2,joint4,joint6,motortom2m,-3.604156972869532e-10,6.292522058970462e-10,5.981020123613234e-10,-5.203881769944019e-10,5.977165429271736e-10,1.2120805293391247e-12,-7.16126399225549e-13,-2.769140349376711e-13,1.7132349951357854e-13,-9.364633475262592e-13,0.0,0.0,0.0,0.0,0.0
223771000000,11170,223771000000,,end,joint2,joint4,joint6,motortom2m,-3.604165854653729e-10,6.292504295402068e-10,5.981020123613234e-10,-5.203872888159822e-10,5.977165429271736e-10,1.212080528574796e-12,-7.161264005412458e-13,-2.769140361938616e-13,1.7132349841535835e-13,-9.364633487718783e-13,0.0,0.0,0.0,0.0,0.0
223791000000,11171,223791000000,,end,joint2,joint4,joint6,motortom2m,-3.604165854653729e-10,6.292504295402068e-10,5.981020123613234e-10,-5.203881769944019e-10,5.97718319284013e-10,1.2120805275578397e-12,-7.161264022917219e-13,-2.769140378651954e-13,1.713234969541949e-13,-9.36463350429138e-13,0.0,0.0,0.0,0.0,0.0
223811000000,11172,223811000000,,end,joint2,joint4,joint6,motortom2m,-3.604156972869532e-10,6.292504295402068e-10,5.981020123613234e-10,-5.203881769944019e-10,5.977165429271736e-10,1.2120805290822455e-12,-7.161263996677099e-13,-2.76914035359738e-13,1.713234991445841e-13,-9.364633479448635e-13,0.0,0.0,0.0,0.0,0.0
223831000000,11173,223831000000,,end,joint2,joint4,joint6,motortom2m,-3.604165854653729e-10,6.292504295402068e-10,5.981020123613234e-10,-5.203881769944019e-10,5.97718319284013e-10,1.212080528319298e-12,-7.161264009808904e-13,-2.7691403661355903e-13,1.7132349804841206e-13,-9.364633491880672e-13,0.0,0.0,0.0,0.0,0.0
223851000000,11174,223851000000,,end,joint2,joint4,joint6,motortom2m,-3.604165854653729e-10,6.292504295402068e-10,5.981020123613234e-10,-5.203881769944019e-10,5.977165429271736e-10,1.212080529082132e-12,-7.161263996680001e-13,-2.76914035359903e-13,1.7132349914447686e-13,-9.3646334794524e-13,0.0,0.0,0.0,0.0,0.0
223871000000,11175,223871000000,,end,joint2,joint4,joint6,motortom2m,-3.604156972869532e-10,6.292504295402068e-10,5.98100236004484e-10,-5.203881769944019e-10,5.97718319284013e-10,1.2120805283199206e-12,-7.161264009799484e-13,-2.769140366125378e-13,1.7132349804935294e-13,-9.364633491872843e-13,0.0,0.0,0.0,0.0,0.0
223891000000,11176,223891000000,,end,joint2,joint4,joint6,motortom2m,-3.604156972869532e-10,6.292522058970462e-10,5.981020123613234e-10,-5.203881769944019e-10,5.977165429271736e-10,1.2120805280653812e-12,-7.161264014177597e-13,-2.769140370311047e-13,1.7132349768337257e-13,-9.364633496016178e-13,0.0,0.0,0.0,0.0,0.0
223911000000,11177,223911000000,,end,joint2,joint4,joint6,motortom2m,-3.604165854653729e-10,6.292522058970462e-10,5.981020123613234e-10,-5.203872888159822e-10,5.97718319284013e-10,1.2120805283201605e-12,-7.161264009789344e-13,-2.7691403661217003e-13,1.713234980495359e-13,-9.364633491859401e-13,0.0,0.0,0.0,0.0,0.0
223931000000,11178,223931000000,,end,joint2,joint4,joint6,motortom2m,-3.604165854653729e-10,6.292522058970462e-10,5.981020123613234e-10,-5.203881769944019e-10,5.977165429271736e-10,1.2120805273027946e-12,-7.161264027306612e-13,-2.7691403828452183e-13,1.7132349658763735e-13,-9.364633508448343e-13,0.0,0.0,0.0,0.0,0.0
223951000000,11179,223951000000,,end,joint2,joint4,joint6,motortom2m,-3.604156972869532e-10,6.292522058970462e-10,5.981020123613234e-10,-5.203881769944019e-10,5.97718319284013e-10,1.2120805273025927e-12,-7.161264027307613e-13,-2.769140382846555e-13,1.713234965874558e-13,-9.364633508447505e-13,0.0,0.0,0.0,0.0,0.0
223971000000,11180,223971000000,,end,joint2,joint4,joint6,motortom2m,-3.604165854653729e-10,6.292522058970462e-10,5.981020123613234e-10,-5.203881769944019e-10,5.977165429271736e-10,1.2120805283188232e-12,-7.161264009816013e-13,-2.7691403661447366e-13,1.7132349804764082e-13,-9.364633491888326e-13,0.0,0.0,0.0,0.0,0.0
223991000000,11181,223991000000,,end,joint2,joint4,joint6,motortom2m,-3.604165854653729e-10,6.292522058970462e-10,5.981020123613234e-10,-5.203881769944019e-10,5.977165429271736e-10,1.2120805288279695e-12,-7.161264001048894e-13,-2.769140357774444e-13,1.7132349877933135e-13,-9.364633483585493e-13,0.0,0.0,0.0,0.0,0.0
224011000000,11182,224011000000,,end,joint2,joint4,joint6,motortom2m,-3.604156972869532e-10,6.292522058970462e-10,5.981020123613234e-10,-5.203881769944019e-10,5.97718319284013e-10,1.2120805285736005e-12,-7.161264005430893e-13,-2.769140361956862e-13,1.713234984137872e-13,-9.36463348773408e-13,0.0,0.0,0.0,0.0,0.0
224031000000,11183,224031000000,,end,joint2,joint4,joint6,motortom2m,-3.604156972869532e-10,6.292522058970462e-10,5.98100236004484e-10,-5.203881769944019e-10,5.977165429271736e-10,1.2120805293359613e-12,-7.161263992310054e-13,-2.76914034942801e-13,1.7132349950917708e-13,-9.364633475313424e-13,0.0,0.0,0.0,0.0,0.0
224051000000,11184,224051000000,,end,joint2,joint4,joint6,motortom2m,-3.604165854653729e-10,6.292522058970462e-10,5.98100236004484e-10,-5.203872888159822e-10,5.97718319284013e-10,1.212080527558013e-12,-7.161264022915086e-13,-2.7691403786493224e-13,1.7132349695452306e-13,-9.364633504289864e-13,0.0,0.0,0.0,0.0,0.0
224071000000,11185,224071000000,,end,joint2,joint4,joint6,motortom2m,-3.604165854653729e-10,6.292504295402068e-10,5.981020123613234e-10,-5.203881769944019e-10,5.977165429271736e-10,1.2120805288296977e-12,-7.161264001022887e-13,-2.769140357748601e-13,1.7132349878160387e-13,-9.364633483562343e-13,0.0,0.0,0.0,0.0,0.0
224091000000,11186,224091000000,,end,joint2,joint4,joint6,motortom2m,-3.604156972869532e-10,6.292504295402068e-10,5.981020123613234e-10,-5.203881769944019e-10,5.97718319284013e-10,1.2120805288300326e-12,-7.161264001015991e-13,-2.769140357741963e-13,1.713234987821564e-13,-9.364633483554328e-13,0.0,0.0,0.0,0.0,0.0
224111000000,11187,224111000000,,end,joint2,joint4,joint6,motortom2m,-3.604165854653729e-10,6.292504295402068e-10,5.981020123613234e-10,-5.203881769944019e-10,5.977165429271736e-10,1.2120805288301246e-12,-7.161264001017824e-13,-2.7691403577422193e-13,1.7132349878223537e-13,-9.364633483558862e-13,0.0,0.0,0.0,0.0,0.0
224131000000,11188,224131000000,,end,joint2,joint4,joint6,motortom2m,-3.604165854653729e-10,6.292504295402068e-10,5.981020123613234e-10,-5.203881769944019e-10,5.97718319284013e-10,1.2120805288287805e-12,-7.161264001037902e-13,-2.7691403577619436e-13,1.7132349878043035e-13,-9.364633483575963e-13,0.0,0.0,0.0,0.0,0.0
224151000000,11189,224151000000,,end,joint2,joint4,joint6,motortom2m,-3.604156972869532e-10,6.292504295402068e-10,5.981020123613234e-10,-5.203881769944019e-10,5.977165429271736e-10,1.212080527051394e-12,-7.161264031640473e-13,-2.769140386978476e-13,1.7132349622641429e-13,-9.36463351255499e-13,0.0,0.0,0.0,0.0,0.0
224171000000,11190,224171000000,,end,joint2,joint4,joint6,motortom2m,-3.604165854653729e-10,6.292504295402068e-10,5.981020123613234e-10,-5.203881769944019e-10,5.97718319284013e-10,1.2120805278117344e-12,-7.161264018547631e-13,-2.7691403744785106e-13,1.7132349731908857e-13,-9.364633500156087e-13,0.0,0.0,0.0,0.0,0.0
224191000000,11191,224191000000,,end,joint2,joint4,joint6,motortom2m,-3.604165854653729e-10,6.292504295402068e-10,5.981020123613234e-10,-5.203872888159822e-10,5.977165429271736e-10,1.2120805283218662e-12,-7.161264009768654e-13,-2.769140366095366e-13,1.7132349805202633e-13,-9.364633491846367e-13,0.0,0.0,0.0,0.0,0.0
224211000000,11192,224211000000,,end,joint2,joint4,joint6,motortom2m,-3.604165854653729e-10,6.292522058970462e-10,5.98100236004484e-10,-5.203881769944019e-10,5.977165429271736e-10,1.212080527813544e-12,-7.161264018513522e-13,-2.7691403744492947e-13,1.7132349732168664e-13,-9.36463350012157e-13,0.0,0.0,0.0,0.0,0.0
224231000000,11193,224231000000,,end,joint2,joint4,joint6,motortom2m,-3.604156972869532e-10,6.292522058970462e-10,5.981020123613234e-10,-5.203881769944019e-10,5.97718319284013e-10,1.212080527811186e-12,-7.161264018550342e-13,-2.7691403744869136e-13,1.713234973182006e-13,-9.36463350015343e-13,0.0,0.0,0.0,0.0,0.0
224251000000,11194,224251000000,,end,joint2,joint4,joint6,motortom2m,-3.604165854653729e-10,6.292522058970462e-10,5.981020123613234e-10,-5.203881769944019e-10,5.977165429271736e-10,1.2120805280665275e-12,-7.161264014159582e-13,-2.7691403702927525e-13,1.7132349768500573e-13,-9.364633495999216e-13,0.0,0.0,0.0,0.0,0.0
224271000000,11195,224271000000,,end,joint2,joint4,joint6,motortom2m,-3.604165854653729e-10,6.292522058970462e-10,5.981020123613234e-10,-5.203881769944019e-10,5.97718319284013e-10,1.2120805283228014e-12,-7.161264009746424e-13,-2.7691403660792467e-13,1.7132349805332304e-13,-9.364633491819058e-13,0.0,0.0,0.0,0.0,0.0
224291000000,11196,224291000000,,end,joint2,joint4,joint6,motortom2m,-3.604156972869532e-10,6.292522058970462e-10,5.981020123613234e-10,-5.203881769944019e-10,5.977165429271736e-10,1.212080530100777e-12,-7.161263979140729e-13,-2.76914033685666e-13,1.7132350060807642e-13,-9.364633462842717e-13,0.0,0.0,0.0,0.0,0.0
224311000000,11197,224311000000,,end,joint2,joint4,joint6,motortom2m,-3.604165854653729e-10,6.292522058970462e-10,5.981020123613234e-10,-5.203881769944019e-10,5.97718319284013e-10,1.2120805283210774e-12,-7.161264009776397e-13,-2.76914036610694e-13,1.7132349805091945e-13,-9.364633491848318e-13,0.0,0.0,0.0,0.0,0.0
224331000000,11198,224331000000,,end,joint2,joint4,joint6,motortom2m,-3.604165854653729e-10,6.292522058970462e-10,5.981020123613234e-10,-5.203872888159822e-10,5.977165429271736e-10,1.212080527048155e-12,-7.161264031693422e-13,-2.7691403870312247e-13,1.7132349622177735e-13,-9.364633512603237e-13,0.0,0.0,0.0,0.0,0.0
224351000000,11199,224351000000,,end,joint2,joint4,joint6,motortom2m,-3.604156972869532e-10,6.292522058970462e-10,5.981020123613234e-10,-5.203881769944019e-10,5.97718319284013e-10,1.212080528573439e-12,-7.161264005432955e-13,-2.769140361958922e-13,1.7132349841356808e-13,-9.364633487736764e-13,0.0,0.0,0.0,0.0,0.0
224371000000,11200,224371000000,,end,joint2,joint4,joint6,motortom2m,-3.604156972869532e-10,6.292522058970462e-10,5.98100236004484e-10,-5.203881769944019e-10,5.977165429271736e-10,1.2120805270481922e-12,-7.161264031693773e-13,-2.769140387030419e-13,1.71323496221887e-13,-9.364633512604596e-13,0.0,0.0,0.0,0.0,0.0
224391000000,11201,224391000000,,end,joint2,joint4,joint6,motortom2m,-3.604165854653729e-10,6.292504295402068e-10,5.981020123613234e-10,-5.203881769944019e-10,5.97718319284013e-10,1.2120805280661858e-12,-7.161264014163449e-13,-2.769140370296036e-13,1.7132349768458467e-13,-9.364633496002609e-13,0.0,0.0,0.0,0.0,0.0
224411000000,11202,224411000000,,end,joint2,joint4,joint6,motortom2m,-3.604165854653729e-10,6.292504295402068e-10,5.981020123613234e-10,-5.203881769944019e-10,5.977165429271736e-10,1.2120805283179482e-12,-7.161264009831424e-13,-2.7691403661588386e-13,1.7132349804633018e-13,-9.364633491903365e-13,0.0,0.0,0.0,0.0,0.0
224431000000,11203,224431000000,,end,joint2,joint4,joint6,motortom2m,-3.604156972869532e-10,6.292504295402068e-10,5.981020123613234e-10,-5.203881769944019e-10,5.977165429271736e-10,1.212080527810843e-12,-7.161264018560754e-13,-2.7691403744931276e-13,1.71323497317724e-13,-9.364633500167362e-13,0.0,0.0,0.0,0.0,0.0
224451000000,11204,224451000000,,end,joint2,joint4,joint6,motortom2m,-3.604165854653729e-10,6.292504295402068e-10,5.981020123613234e-10,-5.203881769944019e-10,5.97718319284013e-10,1.2120805295920444e-12,-7.161263987898887e-13,-2.769140345217148e-13,1.7132349987712664e-13,-9.364633471134415e-13,0.0,0.0,0.0,0.0,0.0
224471000000,11205,224471000000,,end,joint2,joint4,joint6,motortom2m,-3.604165854653729e-10,6.292504295402068e-10,5.981020123613234e-10,-5.203872888159822e-10,5.977165429271736e-10,1.2120805290823707e-12,-7.161263996674601e-13,-2.769140353595104e-13,1.7132349914474646e-13,-9.364633479446056e-13,0.0,0.0,0.0,0.0,0.0
224491000000,11206,224491000000,,end,joint2,joint4,joint6,motortom2m,-3.604156972869532e-10,6.292504295402068e-10,5.981020123613234e-10,-5.203881769944019e-10,5.97718319284013e-10,1.2120805293398117e-12,-7.161263992241903e-13,-2.7691403493627767e-13,1.7132349951472601e-13,-9.364633475247512e-13,0.0,0.0,0.0,0.0,0.0
224511000000,11207,224511000000,,end,joint2,joint4,joint6,motortom2m,-3.604165854653729e-10,6.292504295402068e-10,5.981020123613234e-10,-5.203881769944019e-10,5.977165429271736e-10,1.2120805290822617e-12,-7.161263996677414e-13,-2.7691403535966773e-13,1.713234991446461e-13,-9.364633479449733e-13,0.0,0.0,0.0,0.0,0.0
224531000000,11208,224531000000,,end,joint2,joint4,joint6,motortom2m,-3.604165854653729e-10,6.292522058970462e-10,5.981020123613234e-10,-5.203881769944019e-10,5.97718319284013e-10,1.2120805290838385e-12,-7.161263996644957e-13,-2.7691403535700665e-13,1.7132349914696406e-13,-9.364633479414269e-13,0.0,0.0,0.0,0.0,0.0
224551000000,11209,224551000000,,end,joint2,joint4,joint6,motortom2m,-3.604165854653729e-10,6.292522058970462e-10,5.98100236004484e-10,-5.203881769944019e-10,5.977165429271736e-10,1.2120805273054585e-12,-7.161264027264087e-13,-2.769140382802571e-13,1.7132349659153698e-13,-9.364633508408874e-13,0.0,0.0,0.0,0.0,0.0
224571000000,11210,224571000000,,end,joint2,joint4,joint6,motortom2m,-3.604156972869532e-10,6.292522058970462e-10,5.981020123613234e-10,-5.203881769944019e-10,5.97718319284013e-10,1.2120805290842908e-12,-7.161263996634874e-13,-2.7691403535620573e-13,1.7132349914751316e-13,-9.364633479404024e-13,0.0,0.0,0.0,0.0,0.0
224591000000,11211,224591000000,,end,joint2,joint4,joint6,motortom2m,-3.604165854653729e-10,6.292522058970462e-10,5.981020123613234e-10,-5.203881769944019e-10,5.977165429271736e-10,1.2120805273039584e-12,-7.161264027287881e-13,-2.7691403828268046e-13,1.7132349658927475e-13,-9.364633508430793e-13,0.0,0.0,0.0,0.0,0.0
224611000000,11212,224611000000,,end,joint2,joint4,joint6,motortom2m,-3.604165854653729e-10,6.292522058970462e-10,5.981020123613234e-10,-5.203872888159822e-10,5.97718319284013e-10,1.212080527812622e-12,-7.161264018527717e-13,-2.7691403744636855e-13,1.7132349732028067e-13,-9.364633500134194e-13,0.0,0.0,0.0,0.0,0.0
224631000000,11213,224631000000,,end,joint2,joint4,joint6,motortom2m,-3.604156972869532e-10,6.292522058970462e-10,5.981020123613234e-10,-5.203872888159822e-10,5.977165429271736e-10,1.2120805288295842e-12,-7.161264001023891e-13,-2.7691403577500893e-13,1.7132349878150654e-13,-9.364633483563513e-13,0.0,0.0,0.0,0.0,0.0
224651000000,11214,224651000000,,end,joint2,joint4,joint6,motortom2m,-3.604165854653729e-10,6.292522058970462e-10,5.981020123613234e-10,-5.203881769944019e-10,5.97718319284013e-10,1.2120805273054377e-12,-7.161264027262742e-13,-2.7691403828016015e-13,1.713234965914875e-13,-9.364633508406596e-13,0.0,0.0,0.0,0.0,0.0
224671000000,11215,224671000000,,end,joint2,joint4,joint6,motortom2m,-3.604165854653729e-10,6.292522058970462e-10,5.981020123613234e-10,-5.203881769944019e-10,5.977165429271736e-10,1.2120805285739588e-12,-7.161264005426923e-13,-2.7691403619523687e-13,1.7132349841421532e-13,-9.364633487733903e-13,0.0,0.0,0.0,0.0,0.0
224691000000,11216,224691000000,,end,joint2,joint4,joint6,motortom2m,-3.604156972869532e-10,6.292522058970462e-10,5.981020123613234e-10,-5.203881769944019e-10,5.977165429271736e-10,1.21208052882795e-12,-7.161264001055237e-13,-2.769140357777744e-13,1.7132349877919443e-13,-9.36463348359356e-13,0.0,0.0,0.0,0.0,0.0
224711000000,11217,224711000000,,end,joint2,joint4,joint6,motortom2m,-3.604156972869532e-10,6.292504295402068e-10,5.98100236004484e-10,-5.203881769944019e-10,5.97718319284013e-10,1.2120805288299433e-12,-7.161264001019505e-13,-2.7691403577436875e-13,1.7132349878213884e-13,-9.364633483558157e-13,0.0,0.0,0.0,0.0,0.0
224731000000,11218,224731000000,,end,joint2,joint4,joint6,motortom2m,-3.604165854653729e-10,6.292504295402068e-10,5.981020123613234e-10,-5.203881769944019e-10,5.977165429271736e-10,1.2120805290848421e-12,-7.16126399663177e-13,-2.769140353555583e-13,1.7132349914818706e-13,-9.364633479404775e-13,0.0,0.0,0.0,0.0,0.0
224751000000,11219,224751000000,,end,joint2,joint4,joint6,motortom2m,-3.604165854653729e-10,6.292504295402068e-10,5.981020123613234e-10,-5.203872888159822e-10,5.97718319284013e-10,1.2120805285738832e-12,-7.161264005423213e-13,-2.76914036195061e-13,1.7132349841413575e-13,-9.36463348772661e-13,0.0,0.0,0.0,0.0,0.0
224771000000,11220,224771000000,,end,joint2,joint4,joint6,motortom2m,-3.604156972869532e-10,6.292504295402068e-10,5.981020123613234e-10,-5.203872888159822e-10,5.977165429271736e-10,1.2120805275570246e-12,-7.16126402293312e-13,-2.769140378666668e-13,1.7132349695292787e-13,-9.364633504308898e-13,0.0,0.0,0.0,0.0,0.0
224791000000,11221,224791000000,,end,joint2,joint4,joint6,motortom2m,-3.604165854653729e-10,6.292504295402068e-10,5.981020123613234e-10,-5.203881769944019e-10,5.97718319284013e-10,1.212080528064554e-12,-7.161264014193046e-13,-2.769140370322427e-13,1.713234976823176e-13,-9.364633496031512e-13,0.0,0.0,0.0,0.0,0.0
224811000000,11222,224811000000,,end,joint2,joint4,joint6,motortom2m,-3.604165854653729e-10,6.292504295402068e-10,5.981020123613234e-10,-5.203881769944019e-10,5.977165429271736e-10,1.2120805278118057e-12,-7.161264018548282e-13,-2.769140374478963e-13,1.7132349731906898e-13,-9.364633500158202e-13,0.0,0.0,0.0,0.0,0.0
224831000000,11223,224831000000,,end,joint2,joint4,joint6,motortom2m,-3.604156972869532e-10,6.292504295402068e-10,5.981020123613234e-10,-5.203881769944019e-10,5.97718319284013e-10,1.212080527813213e-12,-7.161264018522351e-13,-2.7691403744543414e-13,1.7132349732117914e-13,-9.36463350013202e-13,0.0,0.0,0.0,0.0,0.0
224851000000,11224,224851000000,,end,joint2,joint4,joint6,motortom2m,-3.604165854653729e-10,6.292522058970462e-10,5.981020123613234e-10,-5.203881769944019e-10,5.977165429271736e-10,1.2120805283179843e-12,-7.161264009830422e-13,-2.769140366158881e-13,1.71323498046457e-13,-9.364633491901366e-13,0.0,0.0,0.0,0.0,0.0
224871000000,11225,224871000000,,end,joint2,joint4,joint6,motortom2m,-3.604165854653729e-10,6.292522058970462e-10,5.981020123613234e-10,-5.203881769944019e-10,5.97718319284013e-10,1.2120805278126565e-12,-7.161264018529127e-13,-2.76914037446396e-13,1.7132349732040447e-13,-9.36463350013632e-13,0.0,0.0,0.0,0.0,0.0
224891000000,11226,224891000000,,end,joint2,joint4,joint6,motortom2m,-3.604165854653729e-10,6.292522058970462e-10,5.98100236004484e-10,-5.203872888159822e-10,5.977165429271736e-10,1.212080528829467e-12,-7.161264001026641e-13,-2.7691403577521653e-13,1.713234987814193e-13,-9.364633483566582e-13,0.0,0.0,0.0,0.0,0.0
224911000000,11227,224911000000,,end,joint2,joint4,joint6,motortom2m,-3.604156972869532e-10,6.292522058970462e-10,5.981020123613234e-10,-5.203872888159822e-10,5.977165429271736e-10,1.2120805295919808e-12,-7.161263987893847e-13,-2.7691403452165804e-13,1.7132349987703657e-13,-9.364633471128266e-13,0.0,0.0,0.0,0.0,0.0
224931000000,11228,224931000000,,end,joint2,joint4,joint6,motortom2m,-3.604165854653729e-10,6.292522058970462e-10,5.981020123613234e-10,-5.203881769944019e-10,5.97718319284013e-10,1.212080529083943e-12,-7.161263996642001e-13,-2.769140353567934e-13,1.7132349914701717e-13,-9.364633479410757e-13,0.0,0.0,0.0,0.0,0.0
224951000000,11229,224951000000,,end,joint2,joint4,joint6,motortom2m,-3.604165854653729e-10,6.292522058970462e-10,5.981020123613234e-10,-5.203881769944019e-10,5.977165429271736e-10,1.2120805293394825e-12,-7.161263992246862e-13,-2.7691403493699116e-13,1.713234995141327e-13,-9.364633475252143e-13,0.0,0.0,0.0,0.0,0.0
224971000000,11230,224971000000,,end,joint2,joint4,joint6,motortom2m,-3.604156972869532e-10,6.292522058970462e-10,5.981020123613234e-10,-5.203881769944019e-10,5.97718319284013e-10,1.212080527558717e-12,-7.161264022902265e-13,-2.7691403786385707e-13,1.713234969554098e-13,-9.364633504276804e-13,0.0,0.0,0.0,0.0,0.0
224991000000,11231,224991000000,,end,joint2,joint4,joint6,motortom2m,-3.604165854653729e-10,6.292522058970462e-10,5.981020123613234e-10,-5.203881769944019e-10,5.977165429271736e-10,1.2120805275588102e-12,-7.161264022904066e-13,-2.769140378638791e-13,1.713234969554926e-13,-9.364633504281297e-13,0.0,0.0,0.0,0.0,0.0
225011000000,11232,225011000000,,end,joint2,joint4,joint6,motortom2m,-3.604165854653729e-10,6.292522058970462e-10,5.981020123613234e-10,-5.203881769944019e-10,5.97718319284013e-10,1.2120805295935205e-12,-7.16126398787434e-13,-2.7691403451936774e-13,1.7132349987926366e-13,-9.36463347111181e-13,0.0,0.0,0.0,0.0,0.0
225031000000,11233,225031000000,,end,joint2,joint4,joint6,motortom2m,-3.604156972869532e-10,6.292504295402068e-10,5.981020123613234e-10,-5.203872888159822e-10,5.977165429271736e-10,1.212080528573804e-12,-7.161264005429767e-13,-2.769140361954471e-13,1.7132349841402286e-13,-9.364633487736336e-13,0.0,0.0,0.0,0.0,0.0
225051000000,11234,225051000000,,end,joint2,joint4,joint6,motortom2m,-3.604156972869532e-10,6.292504295402068e-10,5.98100236004484e-10,-5.203872888159822e-10,5.97718319284013e-10,1.2120805285744822e-12,-7.161264005416048e-13,-2.769140361941625e-13,1.713234984150942e-13,-9.364633487721644e-13,0.0,0.0,0.0,0.0,0.0
225071000000,11235,225071000000,,end,joint2,joint4,joint6,motortom2m,-3.604165854653729e-10,6.292504295402068e-10,5.981020123613234e-10,-5.203881769944019e-10,5.977165429271736e-10,1.2120805285739632e-12,-7.161264005424568e-13,-2.769140361951175e-13,1.7132349841415635e-13,-9.364633487730694e-13,0.0,0.0,0.0,0.0,0.0
225091000000,11236,225091000000,,end,joint2,joint4,joint6,motortom2m,-3.604165854653729e-10,6.292504295402068e-10,5.981020123613234e-10,-5.203881769944019e-10,5.97718319284013e-10,1.212080527813333e-12,-7.161264018517646e-13,-2.7691403744520614e-13,1.7132349732128012e-13,-9.364633500126302e-13,0.0,0.0,0.0,0.0,0.0
225111000000,11237,225111000000,,end,joint2,joint4,joint6,motortom2m,-3.604156972869532e-10,6.292504295402068e-10,5.981020123613234e-10,-5.203881769944019e-10,5.977165429271736e-10,1.2120805278135197e-12,-7.161264018518941e-13,-2.7691403744514414e-13,1.7132349732146793e-13,-9.364633500130591e-13,0.0,0.0,0.0,0.0,0.0
225131000000,11238,225131000000,,end,joint2,joint4,joint6,motortom2m,-3.604165854653729e-10,6.292504295402068e-10,5.981020123613234e-10,-5.203881769944019e-10,5.977165429271736e-10,1.2120805293374844e-12,-7.161263992280515e-13,-2.7691403494003836e-13,1.7132349951138316e-13,-9.364633475284857e-13,0.0,0.0,0.0,0.0,0.0
225151000000,11239,225151000000,,end,joint2,joint4,joint6,motortom2m,-3.604165854653729e-10,6.292504295402068e-10,5.981020123613234e-10,-5.203881769944019e-10,5.97718319284013e-10,1.2120805283198584e-12,-7.161264009799877e-13,-2.7691403661266763e-13,1.7132349804917401e-13,-9.36463349187202e-13,0.0,0.0,0.0,0.0,0.0
225171000000,11240,225171000000,,end,joint2,joint4,joint6,motortom2m,-3.604156972869532e-10,6.292522058970462e-10,5.981020123613234e-10,-5.203872888159822e-10,5.977165429271736e-10,1.212080528319667e-12,-7.161264009801531e-13,-2.7691403661315534e-13,1.7132349804882545e-13,-9.36463349187294e-13,0.0,0.0,0.0,0.0,0.0
225191000000,11241,225191000000,,end,joint2,joint4,joint6,motortom2m,-3.604165854653729e-10,6.292522058970462e-10,5.981020123613234e-10,-5.203872888159822e-10,5.97718319284013e-10,1.2120805285739196e-12,-7.161264005422192e-13,-2.769140361950638e-13,1.713234984142654e-13,-9.36463348772459e-13,0.0,0.0,0.0,0.0,0.0
225211000000,11242,225211000000,,end,joint2,joint4,joint6,motortom2m,-3.604165854653729e-10,6.292522058970462e-10,5.981020123613234e-10,-5.203881769944019e-10,5.977165429271736e-10,1.2120805270492613e-12,-7.161264031673192e-13,-2.769140387012684e-13,1.7132349622341838e-13,-9.364633512583188e-13,0.0,0.0,0.0,0.0,0.0
225231000000,11243,225231000000,,end,joint2,joint4,joint6,motortom2m,-3.604165854653729e-10,6.292522058970462e-10,5.98100236004484e-10,-5.203881769944019e-10,5.97718319284013e-10,1.2120805283212628e-12,-7.161264009773477e-13,-2.769140366103749e-13,1.713234980512549e-13,-9.364633491845788e-13,0.0,0.0,0.0,0.0,0.0
225251000000,11244,225251000000,,end,joint2,joint4,joint6,motortom2m,-3.604156972869532e-10,6.292522058970462e-10,5.981020123613234e-10,-5.203881769944019e-10,5.977165429271736e-10,1.2120805273025543e-12,-7.161264027309689e-13,-2.7691403828483707e-13,1.7132349658729707e-13,-9.364633508450768e-13,0.0,0.0,0.0,0.0,0.0
225271000000,11245,225271000000,,end,joint2,joint4,joint6,motortom2m,-3.604165854653729e-10,6.292522058970462e-10,5.981020123613234e-10,-5.203881769944019e-10,5.97718319284013e-10,1.2120805280647544e-12,-7.161264014186746e-13,-2.7691403703190825e-13,1.7132349768258619e-13,-9.364633496023769e-13,0.0,0.0,0.0,0.0,0.0
225291000000,11246,225291000000,,end,joint2,joint4,joint6,motortom2m,-3.604165854653729e-10,6.292522058970462e-10,5.981020123613234e-10,-5.203881769944019e-10,5.977165429271736e-10,1.2120805295899357e-12,-7.161263987935993e-13,-2.7691403452534945e-13,1.713234998740134e-13,-9.364633471171578e-13,0.0,0.0,0.0,0.0,0.0
225311000000,11247,225311000000,,end,joint2,joint4,joint6,motortom2m,-3.604156972869532e-10,6.292522058970462e-10,5.981020123613234e-10,-5.203872888159822e-10,5.97718319284013e-10,1.2120805278108107e-12,-7.161264018560695e-13,-2.7691403744937617e-13,1.7132349731768725e-13,-9.364633500166516e-13,0.0,0.0,0.0,0.0,0.0
225331000000,11248,225331000000,,end,joint2,joint4,joint6,motortom2m,-3.604165854653729e-10,6.292522058970462e-10,5.981020123613234e-10,-5.203872888159822e-10,5.977165429271736e-10,1.2120805283212157e-12,-7.161264009778309e-13,-2.769140366106829e-13,1.7132349805101174e-13,-9.364633491853918e-13,0.0,0.0,0.0,0.0,0.0
225351000000,11249,225351000000,,end,joint2,joint4,joint6,motortom2m,-3.604165854653729e-10,6.292504295402068e-10,5.981020123613234e-10,-5.203881769944019e-10,5.977165429271736e-10,1.2120805298485472e-12,-7.16126398348357e-13,-2.7691403410014994e-13,1.713235002457174e-13,-9.364633466955202e-13,0.0,0.0,0.0,0.0,0.0
225371000000,11250,225371000000,,end,joint2,joint4,joint6,motortom2m,-3.604156972869532e-10,6.292504295402068e-10,5.981020123613234e-10,-5.203881769944019e-10,5.97718319284013e-10,1.212080528321493e-12,-7.161264009772162e-13,-2.7691403661005886e-13,1.7132349805152954e-13,-9.36463349184537e-13,0.0,0.0,0.0,0.0,0.0
225391000000,11251,225391000000,,end,joint2,joint4,joint6,motortom2m,-3.604156972869532e-10,6.292504295402068e-10,5.98100236004484e-10,-5.203881769944019e-10,5.977165429271736e-10,1.2120805285731071e-12,-7.161264005442651e-13,-2.7691403619658124e-13,1.7132349841306058e-13,-9.364633487748503e-13,0.0,0.0,0.0,0.0,0.0
225411000000,11252,225411000000,,end,joint2,joint4,joint6,motortom2m,-3.604165854653729e-10,6.292504295402068e-10,5.981020123613234e-10,-5.203881769944019e-10,5.97718319284013e-10,1.2120805285747795e-12,-7.161264005408778e-13,-2.7691403619363946e-13,1.7132349841539833e-13,-9.364633487713068e-13,0.0,0.0,0.0,0.0,0.0
225431000000,11253,225431000000,,end,joint2,joint4,joint6,motortom2m,-3.604165854653729e-10,6.292504295402068e-10,5.981020123613234e-10,-5.203881769944019e-10,5.977165429271736e-10,1.2120805278113665e-12,-7.161264018554269e-13,-2.7691403744858655e-13,1.7132349731840215e-13,-9.364633500162616e-13,0.0,0.0,0.0,0.0,0.0
225451000000,11254,225451000000,,end,joint2,joint4,joint6,motortom2m,-3.604156972869532e-10,6.292504295402068e-10,5.981020123613234e-10,-5.203872888159822e-10,5.97718319284013e-10,1.2120805283208625e-12,-7.16126400978125e-13,-2.7691403661099954e-13,1.7132349805056483e-13,-9.364633491854175e-13,0.0,0.0,0.0,0.0,0.0
225471000000,11255,225471000000,,end,joint2,joint4,joint6,motortom2m,-3.604165854653729e-10,6.292504295402068e-10,5.981020123613234e-10,-5.203872888159822e-10,5.977165429271736e-10,1.212080528320953e-12,-7.16126400978311e-13,-2.76914036611027e-13,1.7132349805064117e-13,-9.364633491858733e-13,0.0,0.0,0.0,0.0,0.0
225491000000,11256,225491000000,,end,joint2,joint4,joint6,motortom2m,-3.604165854653729e-10,6.292522058970462e-10,5.981020123613234e-10,-5.203881769944019e-10,5.97718319284013e-10,1.2120805273057734e-12,-7.161264027254416e-13,-2.7691403827956783e-13,1.713234965919756e-13,-9.364633508396725e-13,0.0,0.0,0.0,0.0,0.0
225511000000,11257,225511000000,,end,joint2,joint4,joint6,motortom2m,-3.604156972869532e-10,6.292522058970462e-10,5.981020123613234e-10,-5.203881769944019e-10,5.977165429271736e-10,1.2120805280677283e-12,-7.161264014140193e-13,-2.7691403702732544e-13,1.7132349768679237e-13,-9.36463349598224e-13,0.0,0.0,0.0,0.0,0.0
225531000000,11258,225531000000,,end,joint2,joint4,joint6,motortom2m,-3.604165854653729e-10,6.292522058970462e-10,5.981020123613234e-10,-5.203881769944019e-10,5.97718319284013e-10,1.212080527809595e-12,-7.161264018579705e-13,-2.7691403745128963e-13,1.7132349731604077e-13,-9.364633500183621e-13,0.0,0.0,0.0,0.0,0.0
225551000000,11259,225551000000,,end,joint2,joint4,joint6,motortom2m,-3.604165854653729e-10,6.292522058970462e-10,5.981020123613234e-10,-5.203881769944019e-10,5.977165429271736e-10,1.2120805288304817e-12,-7.16126400101029e-13,-2.769140357736076e-13,1.7132349878284788e-13,-9.364633483551238e-13,0.0,0.0,0.0,0.0,0.0
225571000000,11260,225571000000,,end,joint2,joint4,joint6,motortom2m,-3.604165854653729e-10,6.292522058970462e-10,5.98100236004484e-10,-5.203881769944019e-10,5.97718319284013e-10,1.2120805275582206e-12,-7.161264022909741e-13,-2.769140378645459e-13,1.713234969548498e-13,-9.364633504284868e-13,0.0,0.0,0.0,0.0,0.0
225591000000,11261,225591000000,,end,joint2,joint4,joint6,motortom2m,-3.604156972869532e-10,6.292522058970462e-10,5.981020123613234e-10,-5.203872888159822e-10,5.97718319284013e-10,1.2120805283212349e-12,-7.161264009770688e-13,-2.7691403661032745e-13,1.7132349805109273e-13,-9.364633491841135e-13,0.0,0.0,0.0,0.0,0.0
225611000000,11262,225611000000,,end,joint2,joint4,joint6,motortom2m,-3.604165854653729e-10,6.292522058970462e-10,5.981020123613234e-10,-5.203872888159822e-10,5.977165429271736e-10,1.21208052806646e-12,-7.161264014162988e-13,-2.769140370294463e-13,1.7132349768487648e-13,-9.364633496003477e-13,0.0,0.0,0.0,0.0,0.0
225631000000,11263,225631000000,,end,joint2,joint4,joint6,motortom2m,-3.604165854653729e-10,6.292522058970462e-10,5.981020123613234e-10,-5.203881769944019e-10,5.97718319284013e-10,1.2120805275581153e-12,-7.161264022911912e-13,-2.7691403786479997e-13,1.713234969545392e-13,-9.364633504285625e-13,0.0,0.0,0.0,0.0,0.0
225651000000,11264,225651000000,,end,joint2,joint4,joint6,motortom2m,-3.604156972869532e-10,6.292522058970462e-10,5.981020123613234e-10,-5.203881769944019e-10,5.977165429271736e-10,1.2120805270483057e-12,-7.161264031691065e-13,-2.769140387028781e-13,1.7132349622196274e-13,-9.36463351260081e-13,0.0,0.0,0.0,0.0,0.0
225671000000,11265,225671000000,,end,joint2,joint4,joint6,motortom2m,-3.604165854653729e-10,6.292504295402068e-10,5.981020123613234e-10,-5.203881769944019e-10,5.97718319284013e-10,1.212080528065298e-12,-7.161264014180988e-13,-2.769140370311055e-13,1.7132349768338711e-13,-9.364633496019653e-13,0.0,0.0,0.0,0.0,0.0
225691000000,11266,225691000000,,end,joint2,joint4,joint6,motortom2m,-3.604165854653729e-10,6.292504295402068e-10,5.981020123613234e-10,-5.203881769944019e-10,5.977165429271736e-10,1.212080528317794e-12,-7.161264009836717e-13,-2.7691403661620617e-13,1.7132349804617266e-13,-9.3646334919089e-13,0.0,0.0,0.0,0.0,0.0
225711000000,11267,225711000000,,end,joint2,joint4,joint6,motortom2m,-3.604156972869532e-10,6.292504295402068e-10,5.981020123613234e-10,-5.203881769944019e-10,5.97718319284013e-10,1.2120805270492787e-12,-7.161264031673576e-13,-2.7691403870111006e-13,1.71323496223503e-13,-9.36463351258365e-13,0.0,0.0,0.0,0.0,0.0
225731000000,11268,225731000000,,end,joint2,joint4,joint6,motortom2m,-3.604156972869532e-10,6.292504295402068e-10,5.98100236004484e-10,-5.203872888159822e-10,5.977165429271736e-10,1.2120805278138319e-12,-7.16126401851475e-13,-2.7691403744461887e-13,1.7132349732202006e-13,-9.364633500126906e-13,0.0,0.0,0.0,0.0,0.0
225751000000,11269,225751000000,,end,joint2,joint4,joint6,motortom2m,-3.604165854653729e-10,6.292504295402068e-10,5.981020123613234e-10,-5.203872888159822e-10,5.97718319284013e-10,1.212080529338503e-12,-7.161263992261007e-13,-2.769140349383224e-13,1.7132349951278993e-13,-9.364633475264979e-13,0.0,0.0,0.0,0.0,0.0
225771000000,11270,225771000000,,end,joint2,joint4,joint6,motortom2m,-3.604165854653729e-10,6.292504295402068e-10,5.981020123613234e-10,-5.203881769944019e-10,5.977165429271736e-10,1.2120805290824157e-12,-7.161263996672022e-13,-2.769140353593513e-13,1.7132349914479372e-13,-9.364633479444131e-13,0.0,0.0,0.0,0.0,0.0
225791000000,11271,225791000000,,end,joint2,joint4,joint6,motortom2m,-3.604156972869532e-10,6.292522058970462e-10,5.981020123613234e-10,-5.203881769944019e-10,5.97718319284013e-10,1.2120805290839463e-12,-7.161263996641463e-13,-2.769140353568368e-13,1.7132349914701313e-13,-9.364633479410727e-13,0.0,0.0,0.0,0.0,0.0
225811000000,11272,225811000000,,end,joint2,joint4,joint6,motortom2m,-3.604165854653729e-10,6.292522058970462e-10,5.981020123613234e-10,-5.203881769944019e-10,5.977165429271736e-10,1.2120805290819882e-12,-7.161263996677529e-13,-2.769140353601619e-13,1.713234991441796e-13,-9.364633479447465e-13,0.0,0.0,0.0,0.0,0.0
225831000000,11273,225831000000,,end,joint2,joint4,joint6,motortom2m,-3.604165854653729e-10,6.292522058970462e-10,5.981020123613234e-10,-5.203881769944019e-10,5.977165429271736e-10,1.2120805283205685e-12,-7.161264009787056e-13,-2.769140366117298e-13,1.7132349805009187e-13,-9.364633491859349e-13,0.0,0.0,0.0,0.0,0.0
225851000000,11274,225851000000,,end,joint2,joint4,joint6,motortom2m,-3.604156972869532e-10,6.292522058970462e-10,5.981020123613234e-10,-5.203881769944019e-10,5.97718319284013e-10,1.212080528320921e-12,-7.16126400977897e-13,-2.7691403661098177e-13,1.7132349805069347e-13,-9.364633491850009e-13,0.0,0.0,0.0,0.0,0.0
225871000000,11275,225871000000,,end,joint2,joint4,joint6,motortom2m,-3.604165854653729e-10,6.292522058970462e-10,5.981020123613234e-10,-5.203872888159822e-10,5.977165429271736e-10,1.212080527811694e-12,-7.161264018547215e-13,-2.7691403744805745e-13,1.7132349731894963e-13,-9.364633500154593e-13,0.0,0.0,0.0,0.0,0.0
225891000000,11276,225891000000,,end,joint2,joint4,joint6,motortom2m,-3.604165854653729e-10,6.292522058970462e-10,5.981020123613234e-10,-5.203872888159822e-10,5.97718319284013e-10,1.2120805278120753e-12,-7.161264018538465e-13,-2.769140374472525e-13,1.7132349731959688e-13,-9.36463350014459e-13,0.0,0.0,0.0,0.0,0.0
225911000000,11277,225911000000,,end,joint2,joint4,joint6,motortom2m,-3.604165854653729e-10,6.292522058970462e-10,5.98100236004484e-10,-5.203881769944019e-10,5.977165429271736e-10,1.2120805288296258e-12,-7.16126400102482e-13,-2.769140357749463e-13,1.71323498781658e-13,-9.364633483564672e-13,0.0,0.0,0.0,0.0,0.0
225931000000,11278,225931000000,,end,joint2,joint4,joint6,motortom2m,-3.604156972869532e-10,6.292522058970462e-10,5.981020123613234e-10,-5.203881769944019e-10,5.97718319284013e-10,1.2120805283197219e-12,-7.161264009798464e-13,-2.7691403661289583e-13,1.713234980488935e-13,-9.36463349186881e-13,0.0,0.0,0.0,0.0,0.0
225951000000,11279,225951000000,,end,joint2,joint4,joint6,motortom2m,-3.604165854653729e-10,6.292522058970462e-10,5.981020123613234e-10,-5.203881769944019e-10,5.977165429271736e-10,1.212080528574921e-12,-7.161264005410067e-13,-2.769140361937075e-13,1.713234984154983e-13,-9.364633487716804e-13,0.0,0.0,0.0,0.0,0.0
225971000000,11280,225971000000,,end,joint2,joint4,joint6,motortom2m,-3.604165854653729e-10,6.292522058970462e-10,5.981020123613234e-10,-5.203881769944019e-10,5.97718319284013e-10,1.21208052984824e-12,-7.161263983488306e-13,-2.7691403410069035e-13,1.713235002452089e-13,-9.364633466958668e-13,0.0,0.0,0.0,0.0,0.0
225991000000,11281,225991000000,,end,joint2,joint4,joint6,motortom2m,-3.604156972869532e-10,6.292504295402068e-10,5.981020123613234e-10,-5.203881769944019e-10,5.977165429271736e-10,1.212080528066343e-12,-7.161264014166414e-13,-2.7691403702962e-13,1.713234976847745e-13,-9.364633496008794e-13,0.0,0.0,0.0,0.0,0.0
226011000000,11282,226011000000,,end,joint2,joint4,joint6,motortom2m,-3.604165854653729e-10,6.292504295402068e-10,5.981020123613234e-10,-5.203881769944019e-10,5.97718319284013e-10,1.2120805275571211e-12,-7.161264022930043e-13,-2.769140378663895e-13,1.7132349695318616e-13,-9.36463350430478e-13,0.0,0.0,0.0,0.0,0.0
226031000000,11283,226031000000,,end,joint2,joint4,joint6,motortom2m,-3.604165854653729e-10,6.292504295402068e-10,5.981020123613234e-10,-5.203872888159822e-10,5.977165429271736e-10,1.2120805275572043e-12,-7.161264022930849e-13,-2.769140378663665e-13,1.7132349695325805e-13,-9.364633504308033e-13,0.0,0.0,0.0,0.0,0.0
226051000000,11284,226051000000,,end,joint2,joint4,joint6,motortom2m,-3.604156972869532e-10,6.292504295402068e-10,5.981020123613234e-10,-5.203881769944019e-10,5.977165429271736e-10,1.2120805280645878e-12,-7.161264014193204e-13,-2.7691403703217583e-13,1.713234976824412e-13,-9.364633496032927e-13,0.0,0.0,0.0,0.0,0.0
226071000000,11285,226071000000,,end,joint2,joint4,joint6,motortom2m,-3.604156972869532e-10,6.292504295402068e-10,5.98100236004484e-10,-5.203881769944019e-10,5.97718319284013e-10,1.2120805280688152e-12,-7.161264014123421e-13,-2.7691403702537926e-13,1.7132349768847258e-13,-9.364633495966288e-13,0.0,0.0,0.0,0.0,0.0
226091000000,11286,226091000000,,end,joint2,joint4,joint6,motortom2m,-3.604165854653729e-10,6.292504295402068e-10,5.981020123613234e-10,-5.203881769944019e-10,5.977165429271736e-10,1.212080527809039e-12,-7.161264018592638e-13,-2.769140374523028e-13,1.7132349731507828e-13,-9.36463350019843e-13,0.0,0.0,0.0,0.0,0.0
226111000000,11287,226111000000,,end,joint2,joint4,joint6,motortom2m,-3.604165854653729e-10,6.292522058970462e-10,5.981020123613234e-10,-5.203881769944019e-10,5.97718319284013e-10,1.2120805290834017e-12,-7.161263996649697e-13,-2.769140353576735e-13,1.7132349914624472e-13,-9.364633479417228e-13,0.0,0.0,0.0,0.0,0.0
226131000000,11288,226131000000,,end,joint2,joint4,joint6,motortom2m,-3.604156972869532e-10,6.292522058970462e-10,5.981020123613234e-10,-5.203881769944019e-10,5.977165429271736e-10,1.2120805280661044e-12,-7.161264014167082e-13,-2.769140370299958e-13,1.7132349768440776e-13,-9.364633496006581e-13,0.0,0.0,0.0,0.0,0.0
226151000000,11289,226151000000,,end,joint2,joint4,joint6,motortom2m,-3.604165854653729e-10,6.292522058970462e-10,5.981020123613234e-10,-5.203881769944019e-10,5.97718319284013e-10,1.2120805278111585e-12,-7.161264018553351e-13,-2.769140374488275e-13,1.7132349731818808e-13,-9.364633500157885e-13,0.0,0.0,0.0,0.0,0.0
226171000000,11290,226171000000,,end,joint2,joint4,joint6,motortom2m,-3.604165854653729e-10,6.292522058970462e-10,5.981020123613234e-10,-5.203872888159822e-10,5.977165429271736e-10,1.212080528828991e-12,-7.161264001033786e-13,-2.769140357760009e-13,1.7132349878065674e-13,-9.364633483572067e-13,0.0,0.0,0.0,0.0,0.0
226191000000,11291,226191000000,,end,joint2,joint4,joint6,motortom2m,-3.604156972869532e-10,6.292522058970462e-10,5.981020123613234e-10,-5.203881769944019e-10,5.97718319284013e-10,1.2120805306114787e-12,-7.161263970346935e-13,-2.769140328461098e-13,1.7132350134198535e-13,-9.364633454514792e-13,0.0,0.0,0.0,0.0,0.0
226211000000,11292,226211000000,,end,joint2,joint4,joint6,motortom2m,-3.604156972869532e-10,6.292522058970462e-10,5.981020123613234e-10,-5.203881769944019e-10,5.977165429271736e-10,1.2120805301018195e-12,-7.161263979123577e-13,-2.769140336839454e-13,1.7132350060962093e-13,-9.364633462827613e-13,0.0,0.0,0.0,0.0,0.0
226231000000,11293,226231000000,,end,joint2,joint4,joint6,motortom2m,-3.604165854653729e-10,6.292522058970462e-10,5.981020123613234e-10,-5.203881769944019e-10,5.97718319284013e-10,1.2120805290848906e-12,-7.161263996627826e-13,-2.7691403535523173e-13,1.7132349914849927e-13,-9.364633479399717e-13,0.0,0.0,0.0,0.0,0.0
226251000000,11294,226251000000,,end,joint2,joint4,joint6,motortom2m,-3.604165854653729e-10,6.292522058970462e-10,5.98100236004484e-10,-5.203881769944019e-10,5.977165429271736e-10,1.21208052755899e-12,-7.16126402290176e-13,-2.7691403786357454e-13,1.7132349695582643e-13,-9.364633504280395e-13,0.0,0.0,0.0,0.0,0.0
226271000000,11295,226271000000,,end,joint2,joint4,joint6,motortom2m,-3.604156972869532e-10,6.292522058970462e-10,5.981020123613234e-10,-5.203881769944019e-10,5.977165429271736e-10,1.212080528321765e-12,-7.16126400976474e-13,-2.769140366096041e-13,1.7132349805181207e-13,-9.364633491838142e-13,0.0,0.0,0.0,0.0,0.0
226291000000,11296,226291000000,,end,joint2,joint4,joint6,motortom2m,-3.604165854653729e-10,6.292522058970462e-10,5.981020123613234e-10,-5.203881769944019e-10,5.97718319284013e-10,1.2120805275588405e-12,-7.161264022900534e-13,-2.7691403786366724e-13,1.7132349695555118e-13,-9.364633504274994e-13,0.0,0.0,0.0,0.0,0.0
226311000000,11297,226311000000,,end,joint2,joint4,joint6,motortom2m,-3.604165854653729e-10,6.292504295402068e-10,5.981020123613234e-10,-5.203872888159822e-10,5.977165429271736e-10,1.2120805275587727e-12,-7.161264022903856e-13,-2.7691403786388635e-13,1.713234969554096e-13,-9.364633504280615e-13,0.0,0.0,0.0,0.0,0.0
226331000000,11298,226331000000,,end,joint2,joint4,joint6,motortom2m,-3.604156972869532e-10,6.292504295402068e-10,5.981020123613234e-10,-5.203881769944019e-10,5.97718319284013e-10,1.2120805283211654e-12,-7.161264009776595e-13,-2.7691403661057625e-13,1.7132349805100346e-13,-9.364633491849294e-13,0.0,0.0,0.0,0.0,0.0
226351000000,11299,226351000000,,end,joint2,joint4,joint6,motortom2m,-3.604165854653729e-10,6.292504295402068e-10,5.981020123613234e-10,-5.203881769944019e-10,5.977165429271736e-10,1.2120805283211141e-12,-7.161264009780807e-13,-2.769140366108309e-13,1.7132349805088007e-13,-9.364633491856063e-13,0.0,0.0,0.0,0.0,0.0
226371000000,11300,226371000000,,end,joint2,joint4,joint6,motortom2m,-3.604165854653729e-10,6.292504295402068e-10,5.981020123613234e-10,-5.203881769944019e-10,5.97718319284013e-10,1.2120805290811614e-12,-7.161263996692766e-13,-2.7691403536129967e-13,1.7132349914313855e-13,-9.364633479461628e-13,0.0,0.0,0.0,0.0,0.0
226391000000,11301,226391000000,,end,joint2,joint4,joint6,motortom2m,-3.604165854653729e-10,6.292504295402068e-10,5.981020123613234e-10,-5.203881769944019e-10,5.977165429271736e-10,1.2120805280688608e-12,-7.161264014125384e-13,-2.7691403702549276e-13,1.713234976884437e-13,-9.364633495970957e-13,0.0,0.0,0.0,0.0,0.0
