%time,field.header.seq,field.header.stamp,field.header.frame_id,field.name0,field.name1,field.name2,field.name3,field.name4,field.position0,field.position1,field.position2,field.position3,field.position4,field.velocity0,field.velocity1,field.velocity2,field.velocity3,field.velocity4,field.effort0,field.effort1,field.effort2,field.effort3,field.effort4
105531000000,5253,105531000000,,end,joint2,joint4,joint6,motortom2m,-3.604156972869532e-10,6.292495413617871e-10,5.981020123613234e-10,-5.203872888159822e-10,5.977165429271736e-10,1.2120805280682243e-12,-7.161264014134253e-13,-2.769140370262232e-13,1.7132349768754543e-13,-9.36463349597993e-13,0.0,0.0,0.0,0.0,0.0
105551000000,5254,105551000000,,end,joint2,joint4,joint6,motortom2m,-3.604165854653729e-10,6.292495413617871e-10,5.981020123613234e-10,-5.203872888159822e-10,5.97718319284013e-10,1.2120805288298831e-12,-7.161264001019264e-13,-2.769140357740965e-13,1.7132349878209582e-13,-9.364633483560154e-13,0.0,0.0,0.0,0.0,0.0
105571000000,5255,105571000000,,end,joint2,joint4,joint6,motortom2m,-3.604165854653729e-10,6.292495413617871e-10,5.981020123613234e-10,-5.203872888159822e-10,5.977165429271736e-10,1.212080529083843e-12,-7.161263996650521e-13,-2.769140353568376e-13,1.7132349914696305e-13,-9.36463347942637e-13,0.0,0.0,0.0,0.0,0.0
105591000000,5256,105591000000,,end,joint2,joint4,joint6,motortom2m,-3.604156972869532e-10,6.292495413617871e-10,5.981020123613234e-10,-5.203872888159822e-10,5.97718319284013e-10,1.2120805273034114e-12,-7.161264027298243e-13,-2.7691403828303246e-13,1.7132349658877412e-13,-9.364633508443284e-13,0.0,0.0,0.0,0.0,0.0
105611000000,5257,105611000000,,end,joint2,joint4,joint6,motortom2m,-3.604165854653729e-10,6.292513177186265e-10,5.98100236004484e-10,-5.203872888159822e-10,5.977165429271736e-10,1.2120805280658283e-12,-7.161264014172735e-13,-2.7691403703012727e-13,1.7132349768421046e-13,-9.36463349601508e-13,0.0,0.0,0.0,0.0,0.0
105631000000,5258,105631000000,,end,joint2,joint4,joint6,motortom2m,-3.604165854653729e-10,6.292513177186265e-10,5.98100236004484e-10,-5.203864006375625e-10,5.97718319284013e-10,1.2120805285755182e-12,-7.161264005395389e-13,-2.7691403619216e-13,1.713234984166787e-13,-9.36463348770231e-13,0.0,0.0,0.0,0.0,0.0
105651000000,5259,105651000000,,end,joint2,joint4,joint6,motortom2m,-3.604156972869532e-10,6.292513177186265e-10,5.981020123613234e-10,-5.203872888159822e-10,5.977165429271736e-10,1.2120805293375955e-12,-7.161263992275594e-13,-2.7691403493966596e-13,1.7132349951151968e-13,-9.364633475280816e-13,0.0,0.0,0.0,0.0,0.0
105671000000,5260,105671000000,,end,joint2,joint4,joint6,motortom2m,-3.604165854653729e-10,6.292513177186265e-10,5.981020123613234e-10,-5.203872888159822e-10,5.97718319284013e-10,1.2120805285746026e-12,-7.161264005409257e-13,-2.76914036193632e-13,1.7132349841525152e-13,-9.364633487714873e-13,0.0,0.0,0.0,0.0,0.0
105691000000,5261,105691000000,,end,joint2,joint4,joint6,motortom2m,-3.604165854653729e-10,6.292513177186265e-10,5.981020123613234e-10,-5.203872888159822e-10,5.977165429271736e-10,1.212080528320683e-12,-7.16126400978403e-13,-2.7691403661116817e-13,1.7132349805034027e-13,-9.36463349185995e-13,0.0,0.0,0.0,0.0,0.0
105711000000,5262,105711000000,,end,joint2,joint4,joint6,motortom2m,-3.604165854653729e-10,6.292513177186265e-10,5.981020123613234e-10,-5.203872888159822e-10,5.977165429271736e-10,1.2120805280684864e-12,-7.161264014124332e-13,-2.769140370255695e-13,1.7132349768803435e-13,-9.364633495967987e-13,0.0,0.0,0.0,0.0,0.0
105731000000,5263,105731000000,,end,joint2,joint4,joint6,motortom2m,-3.604156972869532e-10,6.292513177186265e-10,5.981020123613234e-10,-5.203872888159822e-10,5.97718319284013e-10,1.2120805270512645e-12,-7.161264031638889e-13,-2.769140386976721e-13,1.7132349622634683e-13,-9.36463351255111e-13,0.0,0.0,0.0,0.0,0.0
105751000000,5264,105751000000,,end,joint2,joint4,joint6,motortom2m,-3.604165854653729e-10,6.292513177186265e-10,5.981020123613234e-10,-5.203872888159822e-10,5.977165429271736e-10,1.2120805280670487e-12,-7.1612640141549e-13,-2.7691403702821845e-13,1.713234976858929e-13,-9.364633495999131e-13,0.0,0.0,0.0,0.0,0.0
105771000000,5265,105771000000,,end,joint2,joint4,joint6,motortom2m,-3.604165854653729e-10,6.292513177186265e-10,5.981020123613234e-10,-5.203864006375625e-10,5.97718319284013e-10,1.2120805288282946e-12,-7.161264001045625e-13,-2.769140357766932e-13,1.7132349877985985e-13,-9.3646334835844e-13,0.0,0.0,0.0,0.0,0.0
105791000000,5266,105791000000,,end,joint2,joint4,joint6,motortom2m,-3.604156972869532e-10,6.292495413617871e-10,5.98100236004484e-10,-5.203872888159822e-10,5.977165429271736e-10,1.2120805280673724e-12,-7.161264014149298e-13,-2.7691403702761544e-13,1.713234976864123e-13,-9.364633495994575e-13,0.0,0.0,0.0,0.0,0.0
105811000000,5267,105811000000,,end,joint2,joint4,joint6,motortom2m,-3.604165854653729e-10,6.292495413617871e-10,5.981020123613234e-10,-5.203872888159822e-10,5.97718319284013e-10,1.2120805290829038e-12,-7.161263996660095e-13,-2.769140353581408e-13,1.713234991456118e-13,-9.364633479431269e-13,0.0,0.0,0.0,0.0,0.0
105831000000,5268,105831000000,,end,joint2,joint4,joint6,motortom2m,-3.604165854653729e-10,6.292495413617871e-10,5.981020123613234e-10,-5.203872888159822e-10,5.977165429271736e-10,1.212080529337129e-12,-7.161263992286925e-13,-2.76914034940455e-13,1.7132349951085709e-13,-9.364633475293328e-13,0.0,0.0,0.0,0.0,0.0
105851000000,5269,105851000000,,end,joint2,joint4,joint6,motortom2m,-3.604156972869532e-10,6.292495413617871e-10,5.981020123613234e-10,-5.203872888159822e-10,5.97718319284013e-10,1.2120805273040984e-12,-7.1612640272851e-13,-2.769140382819581e-13,1.713234965896538e-13,-9.364633508429887e-13,0.0,0.0,0.0,0.0,0.0
105871000000,5270,105871000000,,end,joint2,joint4,joint6,motortom2m,-3.604156972869532e-10,6.292495413617871e-10,5.981020123613234e-10,-5.203872888159822e-10,5.977165429271736e-10,1.2120805288260414e-12,-7.161264001086192e-13,-2.7691403578047163e-13,1.7132349877653618e-13,-9.364633483625907e-13,0.0,0.0,0.0,0.0,0.0
105891000000,5271,105891000000,,end,joint2,joint4,joint6,motortom2m,-3.604165854653729e-10,6.292495413617871e-10,5.981020123613234e-10,-5.203872888159822e-10,5.97718319284013e-10,1.2120805285767432e-12,-7.161264005378165e-13,-2.76914036190212e-13,1.7132349841835e-13,-9.364633487688539e-13,0.0,0.0,0.0,0.0,0.0
105911000000,5272,105911000000,,end,joint2,joint4,joint6,motortom2m,-3.604165854653729e-10,6.292495413617871e-10,5.981020123613234e-10,-5.203864006375625e-10,5.977165429271736e-10,1.2120805265410037e-12,-7.161264040425088e-13,-2.7691403953631004e-13,1.7132349549316977e-13,-9.36463352087498e-13,0.0,0.0,0.0,0.0,0.0
105931000000,5273,105931000000,,end,joint2,joint4,joint6,motortom2m,-3.604156972869532e-10,6.292513177186265e-10,5.981020123613234e-10,-5.203872888159822e-10,5.97718319284013e-10,1.2120805295948358e-12,-7.161263987848206e-13,-2.7691403451684884e-13,1.7132349988126053e-13,-9.364633471088028e-13,0.0,0.0,0.0,0.0,0.0
105951000000,5274,105951000000,,end,joint2,joint4,joint6,motortom2m,-3.604165854653729e-10,6.292513177186265e-10,5.98100236004484e-10,-5.203872888159822e-10,5.97718319284013e-10,1.2120805283242552e-12,-7.161264009722672e-13,-2.7691403660527693e-13,1.713234980555683e-13,-9.364633491798918e-13,0.0,0.0,0.0,0.0,0.0
105971000000,5275,105971000000,,end,joint2,joint4,joint6,motortom2m,-3.604165854653729e-10,6.292513177186265e-10,5.98100236004484e-10,-5.203872888159822e-10,5.977165429271736e-10,1.2120805293389033e-12,-7.161263992257535e-13,-2.769140349376463e-13,1.713234995135016e-13,-9.364633475264621e-13,0.0,0.0,0.0,0.0,0.0
105991000000,5276,105991000000,,end,joint2,joint4,joint6,motortom2m,-3.604156972869532e-10,6.292513177186265e-10,5.981020123613234e-10,-5.203872888159822e-10,5.97718319284013e-10,1.2120805285768123e-12,-7.161264005371486e-13,-2.7691403619003307e-13,1.713234984183993e-13,-9.364633487678092e-13,0.0,0.0,0.0,0.0,0.0
106011000000,5277,106011000000,,end,joint2,joint4,joint6,motortom2m,-3.604165854653729e-10,6.292513177186265e-10,5.981020123613234e-10,-5.203872888159822e-10,5.977165429271736e-10,1.2120805275577934e-12,-7.161264022917508e-13,-2.7691403786512066e-13,1.7132349695411653e-13,-9.364633504294353e-13,0.0,0.0,0.0,0.0,0.0
106031000000,5278,106031000000,,end,joint2,joint4,joint6,motortom2m,-3.604165854653729e-10,6.292513177186265e-10,5.981020123613234e-10,-5.203872888159822e-10,5.97718319284013e-10,1.2120805295925032e-12,-7.16126398788779e-13,-2.7691403452061033e-13,1.7132349987788658e-13,-9.364633471124857e-13,0.0,0.0,0.0,0.0,0.0
106051000000,5279,106051000000,,end,joint2,joint4,joint6,motortom2m,-3.604165854653729e-10,6.292513177186265e-10,5.981020123613234e-10,-5.203864006375625e-10,5.977165429271736e-10,1.212080528065597e-12,-7.161264014177347e-13,-2.7691403703051016e-13,1.7132349768378657e-13,-9.364633496019922e-13,0.0,0.0,0.0,0.0,0.0
106071000000,5280,106071000000,,end,joint2,joint4,joint6,motortom2m,-3.604156972869532e-10,6.292513177186265e-10,5.981020123613234e-10,-5.203872888159822e-10,5.97718319284013e-10,1.2120805280642233e-12,-7.161264014197956e-13,-2.769140370325331e-13,1.7132349768193834e-13,-9.36463349603753e-13,0.0,0.0,0.0,0.0,0.0
106091000000,5281,106091000000,,end,joint2,joint4,joint6,motortom2m,-3.604165854653729e-10,6.292513177186265e-10,5.981020123613234e-10,-5.203872888159822e-10,5.977165429271736e-10,1.2120805280640241e-12,-7.161264014204632e-13,-2.769140370330246e-13,1.7132349768160512e-13,-9.364633496046615e-13,0.0,0.0,0.0,0.0,0.0
106111000000,5282,106111000000,,end,joint2,joint4,joint6,motortom2m,-3.604165854653729e-10,6.292495413617871e-10,5.981020123613234e-10,-5.203872888159822e-10,5.97718319284013e-10,1.212080527299618e-12,-7.161264027360831e-13,-2.7691403828919754e-13,1.7132349658335787e-13,-9.36463350850161e-13,0.0,0.0,0.0,0.0,0.0
106131000000,5283,106131000000,,end,joint2,joint4,joint6,motortom2m,-3.604156972869532e-10,6.292495413617871e-10,5.98100236004484e-10,-5.203872888159822e-10,5.977165429271736e-10,1.2120805260331568e-12,-7.161264049168927e-13,-2.769140403711465e-13,1.7132349476345813e-13,-9.364633529153853e-13,0.0,0.0,0.0,0.0,0.0
106151000000,5284,106151000000,,end,joint2,joint4,joint6,motortom2m,-3.604165854653729e-10,6.292495413617871e-10,5.981020123613234e-10,-5.203872888159822e-10,5.97718319284013e-10,1.2120805280697778e-12,-7.161264014103549e-13,-2.7691403702349104e-13,1.713234976898026e-13,-9.364633495948995e-13,0.0,0.0,0.0,0.0,0.0
106171000000,5285,106171000000,,end,joint2,joint4,joint6,motortom2m,-3.604165854653729e-10,6.292495413617871e-10,5.981020123613234e-10,-5.203872888159822e-10,5.977165429271736e-10,1.2120805290857142e-12,-7.16126399661703e-13,-2.7691403535379406e-13,1.7132349914956293e-13,-9.364633479394632e-13,0.0,0.0,0.0,0.0,0.0
106191000000,5286,106191000000,,end,joint2,joint4,joint6,motortom2m,-3.604156972869532e-10,6.292495413617871e-10,5.981020123613234e-10,-5.203864006375625e-10,5.977165429271736e-10,1.2120805288293354e-12,-7.161264001030384e-13,-2.769140357751434e-13,1.7132349878119574e-13,-9.364633483572144e-13,0.0,0.0,0.0,0.0,0.0
106211000000,5287,106211000000,,end,joint2,joint4,joint6,motortom2m,-3.604156972869532e-10,6.292495413617871e-10,5.981020123613234e-10,-5.203872888159822e-10,5.97718319284013e-10,1.2120805285736873e-12,-7.161264005428347e-13,-2.769140361951052e-13,1.7132349841397864e-13,-9.364633487734444e-13,0.0,0.0,0.0,0.0,0.0
106231000000,5288,106231000000,,end,joint2,joint4,joint6,motortom2m,-3.604165854653729e-10,6.292495413617871e-10,5.981020123613234e-10,-5.203872888159822e-10,5.977165429271736e-10,1.2120805288299554e-12,-7.161264001020991e-13,-2.769140357741242e-13,1.7132349878213359e-13,-9.36463348356434e-13,0.0,0.0,0.0,0.0,0.0
106251000000,5289,106251000000,,end,joint2,joint4,joint6,motortom2m,-3.604165854653729e-10,6.292513177186265e-10,5.981020123613234e-10,-5.203872888159822e-10,5.97718319284013e-10,1.212080529081743e-12,-7.161263996679161e-13,-2.769140353600777e-13,1.7132349914403379e-13,-9.36463347944815e-13,0.0,0.0,0.0,0.0,0.0
106271000000,5290,106271000000,,end,joint2,joint4,joint6,motortom2m,-3.604156972869532e-10,6.292513177186265e-10,5.981020123613234e-10,-5.203872888159822e-10,5.977165429271736e-10,1.2120805280648148e-12,-7.161264014189094e-13,-2.7691403703172347e-13,1.7132349768275905e-13,-9.364633496030195e-13,0.0,0.0,0.0,0.0,0.0
106291000000,5291,106291000000,,end,joint2,joint4,joint6,motortom2m,-3.604165854653729e-10,6.292513177186265e-10,5.98100236004484e-10,-5.203872888159822e-10,5.97718319284013e-10,1.2120805280663708e-12,-7.161264014160686e-13,-2.769140370290232e-13,1.7132349768507904e-13,-9.364633496001686e-13,0.0,0.0,0.0,0.0,0.0
106311000000,5292,106311000000,,end,joint2,joint4,joint6,motortom2m,-3.604165854653729e-10,6.292513177186265e-10,5.98100236004484e-10,-5.203872888159822e-10,5.977165429271736e-10,1.2120805283207094e-12,-7.161264009785797e-13,-2.7691403661116615e-13,1.7132349805048163e-13,-9.364633491862168e-13,0.0,0.0,0.0,0.0,0.0
106331000000,5293,106331000000,,end,joint2,joint4,joint6,motortom2m,-3.604156972869532e-10,6.292513177186265e-10,5.981020123613234e-10,-5.203864006375625e-10,5.97718319284013e-10,1.212080528320619e-12,-7.161264009780258e-13,-2.769140366110056e-13,1.7132349805031421e-13,-9.364633491853084e-13,0.0,0.0,0.0,0.0,0.0
106351000000,5294,106351000000,,end,joint2,joint4,joint6,motortom2m,-3.604165854653729e-10,6.292513177186265e-10,5.981020123613234e-10,-5.203872888159822e-10,5.977165429271736e-10,1.212080525270694e-12,-7.161264062290253e-13,-2.7691404162429627e-13,1.71323493667773e-13,-9.36463354157524e-13,0.0,0.0,0.0,0.0,0.0
106371000000,5295,106371000000,,end,joint2,joint4,joint6,motortom2m,-3.604165854653729e-10,6.292513177186265e-10,5.981020123613234e-10,-5.203872888159822e-10,5.97718319284013e-10,1.2120805285771554e-12,-7.161264005369275e-13,-2.7691403618960756e-13,1.71323498418866e-13,-9.364633487678565e-13,0.0,0.0,0.0,0.0,0.0
106391000000,5296,106391000000,,end,joint2,joint4,joint6,motortom2m,-3.604165854653729e-10,6.292513177186265e-10,5.981020123613234e-10,-5.203872888159822e-10,5.977165429271736e-10,1.2120805283196046e-12,-7.161264009804762e-13,-2.769140366129958e-13,1.713234980487885e-13,-9.364633491880747e-13,0.0,0.0,0.0,0.0,0.0
106411000000,5297,106411000000,,end,joint2,joint4,joint6,motortom2m,-3.604156972869532e-10,6.292513177186265e-10,5.981020123613234e-10,-5.203872888159822e-10,5.977165429271736e-10,1.2120805283205741e-12,-7.161264009786187e-13,-2.769140366112425e-13,1.7132349805027302e-13,-9.3646334918615e-13,0.0,0.0,0.0,0.0,0.0
106431000000,5298,106431000000,,end,joint2,joint4,joint6,motortom2m,-3.604165854653729e-10,6.292495413617871e-10,5.981020123613234e-10,-5.203872888159822e-10,5.97718319284013e-10,1.2120805288281736e-12,-7.16126400104823e-13,-2.769140357769141e-13,1.7132349877967183e-13,-9.364633483586886e-13,0.0,0.0,0.0,0.0,0.0
106451000000,5299,106451000000,,end,joint2,joint4,joint6,motortom2m,-3.604165854653729e-10,6.292495413617871e-10,5.981020123613234e-10,-5.203872888159822e-10,5.977165429271736e-10,1.2120805293385402e-12,-7.161263992266641e-13,-2.769140349382913e-13,1.7132349951293877e-13,-9.364633475275076e-13,0.0,0.0,0.0,0.0,0.0
106471000000,5300,106471000000,,end,joint2,joint4,joint6,motortom2m,-3.604156972869532e-10,6.292495413617871e-10,5.98100236004484e-10,-5.203864006375625e-10,5.97718319284013e-10,1.2120805288281672e-12,-7.161264001048306e-13,-2.769140357768513e-13,1.713234987797203e-13,-9.364633483587712e-13,0.0,0.0,0.0,0.0,0.0
106491000000,5301,106491000000,,end,joint2,joint4,joint6,motortom2m,-3.604165854653729e-10,6.292495413617871e-10,5.981020123613234e-10,-5.203872888159822e-10,5.977165429271736e-10,1.2120805278103042e-12,-7.161264018570441e-13,-2.7691403744995637e-13,1.7132349731696105e-13,-9.36463350017946e-13,0.0,0.0,0.0,0.0,0.0
106511000000,5302,106511000000,,end,joint2,joint4,joint6,motortom2m,-3.604165854653729e-10,6.292495413617871e-10,5.981020123613234e-10,-5.203872888159822e-10,5.97718319284013e-10,1.2120805275585784e-12,-7.16126402290282e-13,-2.7691403786359534e-13,1.713234969553262e-13,-9.364633504280053e-13,0.0,0.0,0.0,0.0,0.0
106531000000,5303,106531000000,,end,joint2,joint4,joint6,motortom2m,-3.604156972869532e-10,6.292495413617871e-10,5.981020123613234e-10,-5.203872888159822e-10,5.977165429271736e-10,1.2120805270484321e-12,-7.16126403168867e-13,-2.769140387022832e-13,1.7132349622224082e-13,-9.364633512601795e-13,0.0,0.0,0.0,0.0,0.0
106551000000,5304,106551000000,,end,joint2,joint4,joint6,motortom2m,-3.604156972869532e-10,6.292513177186265e-10,5.981020123613234e-10,-5.203872888159822e-10,5.97718319284013e-10,1.2120805280674645e-12,-7.161264014140813e-13,-2.7691403702729817e-13,1.7132349768653408e-13,-9.364633495981962e-13,0.0,0.0,0.0,0.0,0.0
106571000000,5305,106571000000,,end,joint2,joint4,joint6,motortom2m,-3.604165854653729e-10,6.292513177186265e-10,5.981020123613234e-10,-5.203872888159822e-10,5.977165429271736e-10,1.2120805283224207e-12,-7.161264009755428e-13,-2.769140366084356e-13,1.7132349805281898e-13,-9.36463349183253e-13,0.0,0.0,0.0,0.0,0.0
106591000000,5306,106591000000,,end,joint2,joint4,joint6,motortom2m,-3.604165854653729e-10,6.292513177186265e-10,5.981020123613234e-10,-5.203872888159822e-10,5.97718319284013e-10,1.2120805298485472e-12,-7.161263983480992e-13,-2.769140340998549e-13,1.7132350024580686e-13,-9.364633466952963e-13,0.0,0.0,0.0,0.0,0.0
106611000000,5307,106611000000,,end,joint2,joint4,joint6,motortom2m,-3.604156972869532e-10,6.292513177186265e-10,5.981020123613234e-10,-5.203864006375625e-10,5.977165429271736e-10,1.2120805280682846e-12,-7.161264014130426e-13,-2.769140370260762e-13,1.7132349768770598e-13,-9.364633495975756e-13,0.0,0.0,0.0,0.0,0.0
106631000000,5308,106631000000,,end,joint2,joint4,joint6,motortom2m,-3.604165854653729e-10,6.292513177186265e-10,5.98100236004484e-10,-5.203872888159822e-10,5.977165429271736e-10,1.2120805280657698e-12,-7.161264014170085e-13,-2.76914037029936e-13,1.713234976842351e-13,-9.364633496011272e-13,0.0,0.0,0.0,0.0,0.0
106651000000,5309,106651000000,,end,joint2,joint4,joint6,motortom2m,-3.604165854653729e-10,6.292513177186265e-10,5.98100236004484e-10,-5.203872888159822e-10,5.97718319284013e-10,1.2120805290839711e-12,-7.161263996643075e-13,-2.76914035356423e-13,1.713234991472906e-13,-9.364633479414986e-13,0.0,0.0,0.0,0.0,0.0
106671000000,5310,106671000000,,end,joint2,joint4,joint6,motortom2m,-3.604156972869532e-10,6.292513177186265e-10,5.981020123613234e-10,-5.203872888159822e-10,5.977165429271736e-10,1.2120805280636513e-12,-7.161264014206254e-13,-2.7691403703348507e-13,1.7132349768103845e-13,-9.364633496045343e-13,0.0,0.0,0.0,0.0,0.0
106691000000,5311,106691000000,,end,joint2,joint4,joint6,motortom2m,-3.604165854653729e-10,6.292513177186265e-10,5.981020123613234e-10,-5.203872888159822e-10,5.97718319284013e-10,1.2120805293364133e-12,-7.161263992297059e-13,-2.7691403494157256e-13,1.7132349950986693e-13,-9.36463347529981e-13,0.0,0.0,0.0,0.0,0.0
106711000000,5312,106711000000,,end,joint2,joint4,joint6,motortom2m,-3.604165854653729e-10,6.292513177186265e-10,5.981020123613234e-10,-5.203872888159822e-10,5.977165429271736e-10,1.2120805283191597e-12,-7.161264009812475e-13,-2.769140366137444e-13,1.7132349804812792e-13,-9.364633491887016e-13,0.0,0.0,0.0,0.0,0.0
106731000000,5313,106731000000,,end,joint2,joint4,joint6,motortom2m,-3.604165854653729e-10,6.292513177186265e-10,5.981020123613234e-10,-5.203872888159822e-10,5.97718319284013e-10,1.212080527047165e-12,-7.161264031707485e-13,-2.769140387042538e-13,1.713234962205085e-13,-9.36463351261647e-13,0.0,0.0,0.0,0.0,0.0
106751000000,5314,106751000000,,end,joint2,joint4,joint6,motortom2m,-3.604156972869532e-10,6.292495413617871e-10,5.981020123613234e-10,-5.203864006375625e-10,5.977165429271736e-10,1.212080527304748e-12,-7.161264027277002e-13,-2.7691403828109517e-13,1.7132349659053572e-13,-9.364633508424287e-13,0.0,0.0,0.0,0.0,0.0
106771000000,5315,106771000000,,end,joint2,joint4,joint6,motortom2m,-3.604165854653729e-10,6.292495413617871e-10,5.981020123613234e-10,-5.203864006375625e-10,5.97718319284013e-10,1.2120805280695983e-12,-7.161264014108662e-13,-2.769140370238263e-13,1.713234976896263e-13,-9.364633495954325e-13,0.0,0.0,0.0,0.0,0.0
106791000000,5316,106791000000,,end,joint2,joint4,joint6,motortom2m,-3.604165854653729e-10,6.292495413617871e-10,5.981020123613234e-10,-5.203872888159822e-10,5.977165429271736e-10,1.2120805280672327e-12,-7.16126401415155e-13,-2.769140370278079e-13,1.7132349768621076e-13,-9.36463349599748e-13,0.0,0.0,0.0,0.0,0.0
106811000000,5317,106811000000,,end,joint2,joint4,joint6,motortom2m,-3.604156972869532e-10,6.292495413617871e-10,5.98100236004484e-10,-5.203872888159822e-10,5.97718319284013e-10,1.2120805285730052e-12,-7.161264005440892e-13,-2.7691403619621693e-13,1.7132349841309956e-13,-9.364633487747752e-13,0.0,0.0,0.0,0.0,0.0
106831000000,5318,106831000000,,end,joint2,joint4,joint6,motortom2m,-3.604165854653729e-10,6.292495413617871e-10,5.981020123613234e-10,-5.203872888159822e-10,5.977165429271736e-10,1.2120805290825355e-12,-7.161263996669577e-13,-2.769140353588777e-13,1.7132349914503161e-13,-9.364633479443784e-13,0.0,0.0,0.0,0.0,0.0
106851000000,5319,106851000000,,end,joint2,joint4,joint6,motortom2m,-3.604165854653729e-10,6.292495413617871e-10,5.981020123613234e-10,-5.203872888159822e-10,5.97718319284013e-10,1.2120805288276142e-12,-7.161264001055365e-13,-2.7691403577766536e-13,1.7132349877885152e-13,-9.364633483594619e-13,0.0,0.0,0.0,0.0,0.0
106871000000,5320,106871000000,,end,joint2,joint4,joint6,motortom2m,-3.604156972869532e-10,6.292513177186265e-10,5.981020123613234e-10,-5.203872888159822e-10,5.97718319284013e-10,1.212080529084628e-12,-7.161263996630659e-13,-2.7691403535548154e-13,1.7132349914806528e-13,-9.364633479401552e-13,0.0,0.0,0.0,0.0,0.0
106891000000,5321,106891000000,,end,joint2,joint4,joint6,motortom2m,-3.604156972869532e-10,6.292513177186265e-10,5.981020123613234e-10,-5.203864006375625e-10,5.977165429271736e-10,1.2120805270493215e-12,-7.161264031670329e-13,-2.7691403870088145e-13,1.713234962235026e-13,-9.364633512581166e-13,0.0,0.0,0.0,0.0,0.0
106911000000,5322,106911000000,,end,joint2,joint4,joint6,motortom2m,-3.604165854653729e-10,6.292513177186265e-10,5.981020123613234e-10,-5.203864006375625e-10,5.97718319284013e-10,1.2120805273019628e-12,-7.161264027317921e-13,-2.7691403828538536e-13,1.7132349658665104e-13,-9.36463350845816e-13,0.0,0.0,0.0,0.0,0.0
106931000000,5323,106931000000,,end,joint2,joint4,joint6,motortom2m,-3.604165854653729e-10,6.292513177186265e-10,5.981020123613234e-10,-5.203872888159822e-10,5.977165429271736e-10,1.2120805285749903e-12,-7.161264005406767e-13,-2.7691403619320184e-13,1.7132349841579032e-13,-9.364633487714596e-13,0.0,0.0,0.0,0.0,0.0
106951000000,5324,106951000000,,end,joint2,joint4,joint6,motortom2m,-3.604156972869532e-10,6.292513177186265e-10,5.981020123613234e-10,-5.203872888159822e-10,5.97718319284013e-10,1.212080527048136e-12,-7.161264031688789e-13,-2.769140387025839e-13,1.7132349622197546e-13,-9.364633512597784e-13,0.0,0.0,0.0,0.0,0.0
106971000000,5325,106971000000,,end,joint2,joint4,joint6,motortom2m,-3.604165854653729e-10,6.292513177186265e-10,5.98100236004484e-10,-5.203872888159822e-10,5.977165429271736e-10,1.212080527305695e-12,-7.161264027259863e-13,-2.769140382795238e-13,1.7132349659196693e-13,-9.36463350840739e-13,0.0,0.0,0.0,0.0,0.0
106991000000,5326,106991000000,,end,joint2,joint4,joint6,motortom2m,-3.604165854653729e-10,6.292513177186265e-10,5.98100236004484e-10,-5.203872888159822e-10,5.97718319284013e-10,1.2120805290866003e-12,-7.161263996599476e-13,-2.769140353521839e-13,1.713234991510412e-13,-9.364633479375006e-13,0.0,0.0,0.0,0.0,0.0
107011000000,5327,107011000000,,end,joint2,joint4,joint6,motortom2m,-3.604156972869532e-10,6.292513177186265e-10,5.981020123613234e-10,-5.203872888159822e-10,5.977165429271736e-10,1.2120805280674974e-12,-7.161264014144575e-13,-2.769140370274266e-13,1.7132349768646016e-13,-9.3646334959889e-13,0.0,0.0,0.0,0.0,0.0
107031000000,5328,107031000000,,end,joint2,joint4,joint6,motortom2m,-3.604156972869532e-10,6.292513177186265e-10,5.981020123613234e-10,-5.203864006375625e-10,5.97718319284013e-10,1.212080528067971e-12,-7.161264014134209e-13,-2.769140370264807e-13,1.7132349768721242e-13,-9.36463349597732e-13,0.0,0.0,0.0,0.0,0.0
107051000000,5329,107051000000,,end,joint2,joint4,joint6,motortom2m,-3.604165854653729e-10,6.292513177186265e-10,5.981020123613234e-10,-5.203864006375625e-10,5.977165429271736e-10,1.2120805283210511e-12,-7.161264009780167e-13,-2.7691403661063886e-13,1.7132349805083e-13,-9.364633491857372e-13,0.0,0.0,0.0,0.0,0.0
107071000000,5330,107071000000,,end,joint2,joint4,joint6,motortom2m,-3.604165854653729e-10,6.292495413617871e-10,5.981020123613234e-10,-5.203872888159822e-10,5.97718319284013e-10,1.2120805288279955e-12,-7.161264001049851e-13,-2.769140357771542e-13,1.7132349877939092e-13,-9.364633483589158e-13,0.0,0.0,0.0,0.0,0.0
107091000000,5331,107091000000,,end,joint2,joint4,joint6,motortom2m,-3.604156972869532e-10,6.292495413617871e-10,5.981020123613234e-10,-5.203872888159822e-10,5.977165429271736e-10,1.2120805293371128e-12,-7.161263992288989e-13,-2.7691403494053636e-13,1.7132349951088152e-13,-9.3646334752968e-13,0.0,0.0,0.0,0.0,0.0
107111000000,5332,107111000000,,end,joint2,joint4,joint6,motortom2m,-3.604165854653729e-10,6.292495413617871e-10,5.981020123613234e-10,-5.203872888159822e-10,5.977165429271736e-10,1.2120805283202179e-12,-7.161264009795996e-13,-2.769140366119794e-13,1.7132349804971685e-13,-9.364633491872304e-13,0.0,0.0,0.0,0.0,0.0
107131000000,5333,107131000000,,end,joint2,joint4,joint6,motortom2m,-3.604165854653729e-10,6.292495413617871e-10,5.981020123613234e-10,-5.203872888159822e-10,5.97718319284013e-10,1.2120805283198663e-12,-7.16126400979949e-13,-2.769140366123542e-13,1.7132349804932366e-13,-9.364633491873816e-13,0.0,0.0,0.0,0.0,0.0
107151000000,5334,107151000000,,end,joint2,joint4,joint6,motortom2m,-3.604156972869532e-10,6.292495413617871e-10,5.98100236004484e-10,-5.203872888159822e-10,5.977165429271736e-10,1.2120805275592364e-12,-7.161264022898428e-13,-2.769140378628144e-13,1.7132349695628768e-13,-9.36463350427956e-13,0.0,0.0,0.0,0.0,0.0
107171000000,5335,107171000000,,end,joint2,joint4,joint6,motortom2m,-3.604165854653729e-10,6.292495413617871e-10,5.981020123613234e-10,-5.203864006375625e-10,5.97718319284013e-10,1.2120805285747005e-12,-7.161264005409283e-13,-2.769140361933929e-13,1.7132349841539006e-13,-9.364633487716004e-13,0.0,0.0,0.0,0.0,0.0
107191000000,5336,107191000000,,end,joint2,joint4,joint6,motortom2m,-3.604165854653729e-10,6.292513177186265e-10,5.981020123613234e-10,-5.203864006375625e-10,5.977165429271736e-10,1.2120805275601088e-12,-7.161264022876488e-13,-2.7691403786134927e-13,1.7132349695740446e-13,-9.36463350425472e-13,0.0,0.0,0.0,0.0,0.0
107211000000,5337,107211000000,,end,joint2,joint4,joint6,motortom2m,-3.604156972869532e-10,6.292513177186265e-10,5.981020123613234e-10,-5.203872888159822e-10,5.97718319284013e-10,1.212080529087102e-12,-7.161263996588486e-13,-2.7691403535143005e-13,1.7132349915159938e-13,-9.364633479362602e-13,0.0,0.0,0.0,0.0,0.0
107231000000,5338,107231000000,,end,joint2,joint4,joint6,motortom2m,-3.604156972869532e-10,6.292513177186265e-10,5.981020123613234e-10,-5.203872888159822e-10,5.977165429271736e-10,1.212080529338863e-12,-7.161263992256473e-13,-2.769140349377121e-13,1.7132349951334307e-13,-9.364633475263375e-13,0.0,0.0,0.0,0.0,0.0
107251000000,5339,107251000000,,end,joint2,joint4,joint6,motortom2m,-3.604165854653729e-10,6.292513177186265e-10,5.981020123613234e-10,-5.203872888159822e-10,5.97718319284013e-10,1.2120805288302248e-12,-7.161264001010324e-13,-2.7691403577353995e-13,1.7132349878258635e-13,-9.364633483550168e-13,0.0,0.0,0.0,0.0,0.0
107271000000,5340,107271000000,,end,joint2,joint4,joint6,motortom2m,-3.604165854653729e-10,6.292513177186265e-10,5.981020123613234e-10,-5.203872888159822e-10,5.977165429271736e-10,1.2120805280659964e-12,-7.161264014169263e-13,-2.769140370297888e-13,1.7132349768443502e-13,-9.364633496012312e-13,0.0,0.0,0.0,0.0,0.0
107291000000,5341,107291000000,,end,joint2,joint4,joint6,motortom2m,-3.604156972869532e-10,6.292513177186265e-10,5.981020123613234e-10,-5.203872888159822e-10,5.97718319284013e-10,1.2120805280654666e-12,-7.161264014175909e-13,-2.769140370304613e-13,1.7132349768378354e-13,-9.364633496016834e-13,0.0,0.0,0.0,0.0,0.0
107311000000,5342,107311000000,,end,joint2,joint4,joint6,motortom2m,-3.604165854653729e-10,6.292513177186265e-10,5.98100236004484e-10,-5.203864006375625e-10,5.977165429271736e-10,1.2120805290827166e-12,-7.161263996666093e-13,-2.769140353585744e-13,1.713234991454234e-13,-9.364633479440197e-13,0.0,0.0,0.0,0.0,0.0
107331000000,5343,107331000000,,end,joint2,joint4,joint6,motortom2m,-3.604165854653729e-10,6.292513177186265e-10,5.98100236004484e-10,-5.203864006375625e-10,5.977165429271736e-10,1.212080528828023e-12,-7.161264001050209e-13,-2.769140357771298e-13,1.7132349877950826e-13,-9.364633483589982e-13,0.0,0.0,0.0,0.0,0.0
107351000000,5344,107351000000,,end,joint2,joint4,joint6,motortom2m,-3.604156972869532e-10,6.292513177186265e-10,5.981020123613234e-10,-5.203872888159822e-10,5.97718319284013e-10,1.2120805285728218e-12,-7.161264005440492e-13,-2.769140361965269e-13,1.713234984126888e-13,-9.364633487744067e-13,0.0,0.0,0.0,0.0,0.0
107371000000,5345,107371000000,,end,joint2,joint4,joint6,motortom2m,-3.604156972869532e-10,6.292513177186265e-10,5.981020123613234e-10,-5.203872888159822e-10,5.977165429271736e-10,1.2120805283203166e-12,-7.161264009792666e-13,-2.7691403661184994e-13,1.7132349804976128e-13,-9.364633491868131e-13,0.0,0.0,0.0,0.0,0.0
107391000000,5346,107391000000,,end,joint2,joint4,joint6,motortom2m,-3.604165854653729e-10,6.292495413617871e-10,5.981020123613234e-10,-5.203872888159822e-10,5.97718319284013e-10,1.2120805280660998e-12,-7.161264014166749e-13,-2.769140370295079e-13,1.713234976845788e-13,-9.364633496007968e-13,0.0,0.0,0.0,0.0,0.0
107411000000,5347,107411000000,,end,joint2,joint4,joint6,motortom2m,-3.604165854653729e-10,6.292495413617871e-10,5.981020123613234e-10,-5.203872888159822e-10,5.977165429271736e-10,1.2120805288302543e-12,-7.161264001015732e-13,-2.769140357737199e-13,1.7132349878252395e-13,-9.364633483558884e-13,0.0,0.0,0.0,0.0,0.0
107431000000,5348,107431000000,,end,joint2,joint4,joint6,motortom2m,-3.604156972869532e-10,6.292495413617871e-10,5.981020123613234e-10,-5.203872888159822e-10,5.97718319284013e-10,1.2120805288324773e-12,-7.161264000976374e-13,-2.76914035769958e-13,1.7132349878578804e-13,-9.364633483520112e-13,0.0,0.0,0.0,0.0,0.0
107451000000,5349,107451000000,,end,joint2,joint4,joint6,motortom2m,-3.604165854653729e-10,6.292495413617871e-10,5.981020123613234e-10,-5.203864006375625e-10,5.977165429271736e-10,1.2120805293369557e-12,-7.161263992291869e-13,-2.7691403494075043e-13,1.7132349951068563e-13,-9.364633475299268e-13,0.0,0.0,0.0,0.0,0.0
107471000000,5350,107471000000,,end,joint2,joint4,joint6,motortom2m,-3.604165854653729e-10,6.292495413617871e-10,5.981020123613234e-10,-5.203864006375625e-10,5.97718319284013e-10,1.21208052857372e-12,-7.161264005428519e-13,-2.7691403619503836e-13,1.7132349841410183e-13,-9.364633487735874e-13,0.0,0.0,0.0,0.0,0.0
107491000000,5351,107491000000,,end,joint2,joint4,joint6,motortom2m,-3.604156972869532e-10,6.292495413617871e-10,5.98100236004484e-10,-5.203872888159822e-10,5.977165429271736e-10,1.2120805285730805e-12,-7.161264005442538e-13,-2.7691403619623793e-13,1.7132349841314419e-13,-9.364633487751866e-13,0.0,0.0,0.0,0.0,0.0
107511000000,5352,107511000000,,end,joint2,joint4,joint6,motortom2m,-3.604165854653729e-10,6.292513177186265e-10,5.981020123613234e-10,-5.203872888159822e-10,5.97718319284013e-10,1.2120805290833594e-12,-7.161263996649317e-13,-2.769140353574053e-13,1.7132349914626168e-13,-9.364633479419558e-13,0.0,0.0,0.0,0.0,0.0
107531000000,5353,107531000000,,end,joint2,joint4,joint6,motortom2m,-3.604165854653729e-10,6.292513177186265e-10,5.981020123613234e-10,-5.203872888159822e-10,5.977165429271736e-10,1.212080528065996e-12,-7.161264014166553e-13,-2.769140370297551e-13,1.7132349768436596e-13,-9.364633496008473e-13,0.0,0.0,0.0,0.0,0.0
107551000000,5354,107551000000,,end,joint2,joint4,joint6,motortom2m,-3.604165854653729e-10,6.292513177186265e-10,5.981020123613234e-10,-5.203872888159822e-10,5.977165429271736e-10,1.2120805283217795e-12,-7.161264009762658e-13,-2.769140366092622e-13,1.7132349805195666e-13,-9.364633491837296e-13,0.0,0.0,0.0,0.0,0.0
107571000000,5355,107571000000,,end,joint2,joint4,joint6,motortom2m,-3.604156972869532e-10,6.292513177186265e-10,5.981020123613234e-10,-5.203872888159822e-10,5.97718319284013e-10,1.2120805285731348e-12,-7.161264005435215e-13,-2.769140361960582e-13,1.7132349841318074e-13,-9.364633487738626e-13,0.0,0.0,0.0,0.0,0.0
107591000000,5356,107591000000,,end,joint2,joint4,joint6,motortom2m,-3.604165854653729e-10,6.292513177186265e-10,5.981020123613234e-10,-5.203864006375625e-10,5.977165429271736e-10,1.2120805270510712e-12,-7.161264031641664e-13,-2.7691403869801803e-13,1.7132349622603058e-13,-9.364633512554994e-13,0.0,0.0,0.0,0.0,0.0
107611000000,5357,107611000000,,end,joint2,joint4,joint6,motortom2m,-3.604165854653729e-10,6.292513177186265e-10,5.981020123613234e-10,-5.203864006375625e-10,5.97718319284013e-10,1.212080528323363e-12,-7.161264009737094e-13,-2.7691403660665623e-13,1.7132349805428089e-13,-9.364633491813022e-13,0.0,0.0,0.0,0.0,0.0
107631000000,5358,107631000000,,end,joint2,joint4,joint6,motortom2m,-3.604156972869532e-10,6.292513177186265e-10,5.981020123613234e-10,-5.203872888159822e-10,5.977165429271736e-10,1.2120805290851733e-12,-7.161263996625299e-13,-2.769140353546481e-13,1.7132349914889044e-13,-9.364633479400833e-13,0.0,0.0,0.0,0.0,0.0
107651000000,5359,107651000000,,end,joint2,joint4,joint6,motortom2m,-3.604165854653729e-10,6.292513177186265e-10,5.98100236004484e-10,-5.203872888159822e-10,5.97718319284013e-10,1.2120805285770512e-12,-7.161264005372637e-13,-2.769140361897786e-13,1.7132349841881187e-13,-9.364633487682006e-13,0.0,0.0,0.0,0.0,0.0
107671000000,5360,107671000000,,end,joint2,joint4,joint6,motortom2m,-3.604165854653729e-10,6.292513177186265e-10,5.98100236004484e-10,-5.203872888159822e-10,5.977165429271736e-10,1.212080528576559e-12,-7.161264005384201e-13,-2.769140361907423e-13,1.7132349841806244e-13,-9.3646334876957e-13,0.0,0.0,0.0,0.0,0.0
107691000000,5361,107691000000,,end,joint2,joint4,joint6,motortom2m,-3.604156972869532e-10,6.292513177186265e-10,5.981020123613234e-10,-5.203872888159822e-10,5.97718319284013e-10,1.2120805283210325e-12,-7.161264009776649e-13,-2.769140366104553e-13,1.7132349805086675e-13,-9.36463349185101e-13,0.0,0.0,0.0,0.0,0.0
107711000000,5362,107711000000,,end,joint2,joint4,joint6,motortom2m,-3.604156972869532e-10,6.292495413617871e-10,5.981020123613234e-10,-5.203872888159822e-10,5.977165429271736e-10,1.2120805275572756e-12,-7.161264022928956e-13,-2.769140378660244e-13,1.7132349695335377e-13,-9.364633504307248e-13,0.0,0.0,0.0,0.0,0.0
107731000000,5363,107731000000,,end,joint2,joint4,joint6,motortom2m,-3.604165854653729e-10,6.292495413617871e-10,5.981020123613234e-10,-5.203864006375625e-10,5.97718319284013e-10,1.2120805288279783e-12,-7.161264001049765e-13,-2.7691403577715927e-13,1.713234987793481e-13,-9.364633483588825e-13,0.0,0.0,0.0,0.0,0.0
107751000000,5364,107751000000,,end,joint2,joint4,joint6,motortom2m,-3.604165854653729e-10,6.292495413617871e-10,5.981020123613234e-10,-5.203864006375625e-10,5.977165429271736e-10,1.212080528064745e-12,-7.161264014192059e-13,-2.7691403703180364e-13,1.7132349768261426e-13,-9.364633496035332e-13,0.0,0.0,0.0,0.0,0.0
107771000000,5365,107771000000,,end,joint2,joint4,joint6,motortom2m,-3.604156972869532e-10,6.292495413617871e-10,5.981020123613234e-10,-5.203872888159822e-10,5.977165429271736e-10,1.2120805275569513e-12,-7.161264022931802e-13,-2.7691403786627096e-13,1.7132349695306014e-13,-9.364633504308855e-13,0.0,0.0,0.0,0.0,0.0
107791000000,5366,107791000000,,end,joint2,joint4,joint6,motortom2m,-3.604165854653729e-10,6.292495413617871e-10,5.981020123613234e-10,-5.203872888159822e-10,5.97718319284013e-10,1.2120805278122947e-12,-7.161264018537469e-13,-2.7691403744662806e-13,1.7132349731996362e-13,-9.364633500147198e-13,0.0,0.0,0.0,0.0,0.0
107811000000,5367,107811000000,,end,joint2,joint4,joint6,motortom2m,-3.604165854653729e-10,6.292495413617871e-10,5.981020123613234e-10,-5.203872888159822e-10,5.977165429271736e-10,1.2120805267977936e-12,-7.16126403600689e-13,-2.7691403911436755e-13,1.7132349586213856e-13,-9.364633516691151e-13,0.0,0.0,0.0,0.0,0.0
107831000000,5368,107831000000,,end,joint2,joint4,joint6,motortom2m,-3.604156972869532e-10,6.292513177186265e-10,5.98100236004484e-10,-5.203872888159822e-10,5.97718319284013e-10,1.212080527815248e-12,-7.161264018485361e-13,-2.7691403744192165e-13,1.7132349732418939e-13,-9.364633500096078e-13,0.0,0.0,0.0,0.0,0.0
107851000000,5369,107851000000,,end,joint2,joint4,joint6,motortom2m,-3.604165854653729e-10,6.292513177186265e-10,5.981020123613234e-10,-5.203872888159822e-10,5.977165429271736e-10,1.212080528829695e-12,-7.161264001020262e-13,-2.7691403577457373e-13,1.7132349878168102e-13,-9.364633483560074e-13,0.0,0.0,0.0,0.0,0.0
107871000000,5370,107871000000,,end,joint2,joint4,joint6,motortom2m,-3.604165854653729e-10,6.292513177186265e-10,5.981020123613234e-10,-5.203864006375625e-10,5.97718319284013e-10,1.2120805285757173e-12,-7.161264005390205e-13,-2.7691403619184717e-13,1.7132349841681702e-13,-9.364633487695969e-13,0.0,0.0,0.0,0.0,0.0
107891000000,5371,107891000000,,end,joint2,joint4,joint6,motortom2m,-3.604165854653729e-10,6.292513177186265e-10,5.981020123613234e-10,-5.203864006375625e-10,5.977165429271736e-10,1.2120805285758106e-12,-7.161264005391986e-13,-2.7691403619186736e-13,1.7132349841690103e-13,-9.364633487700446e-13,0.0,0.0,0.0,0.0,0.0
107911000000,5372,107911000000,,end,joint2,joint4,joint6,motortom2m,-3.604156972869532e-10,6.292513177186265e-10,5.981020123613234e-10,-5.203872888159822e-10,5.97718319284013e-10,1.212080529083925e-12,-7.161263996642154e-13,-2.769140353565018e-13,1.7132349914712117e-13,-9.364633479413873e-13,0.0,0.0,0.0,0.0,0.0
107931000000,5373,107931000000,,end,joint2,joint4,joint6,motortom2m,-3.604165854653729e-10,6.292513177186265e-10,5.981020123613234e-10,-5.203872888159822e-10,5.977165429271736e-10,1.2120805280640722e-12,-7.161264014200999e-13,-2.7691403703286084e-13,1.713234976816859e-13,-9.364633496041932e-13,0.0,0.0,0.0,0.0,0.0
107951000000,5374,107951000000,,end,joint2,joint4,joint6,motortom2m,-3.604165854653729e-10,6.292513177186265e-10,5.981020123613234e-10,-5.203872888159822e-10,5.97718319284013e-10,1.2120805280624094e-12,-7.161264014226471e-13,-2.7691403703535167e-13,1.7132349767942266e-13,-9.364633496064118e-13,0.0,0.0,0.0,0.0,0.0
107971000000,5375,107971000000,,end,joint2,joint4,joint6,motortom2m,-3.604156972869532e-10,6.292513177186265e-10,5.981020123613234e-10,-5.203872888159822e-10,5.977165429271736e-10,1.2120805283194884e-12,-7.161264009807685e-13,-2.769140366132008e-13,1.7132349804867177e-13,-9.364633491883776e-13,0.0,0.0,0.0,0.0,0.0
107991000000,5376,107991000000,,end,joint2,joint4,joint6,motortom2m,-3.604165854653729e-10,6.292513177186265e-10,5.98100236004484e-10,-5.203872888159822e-10,5.97718319284013e-10,1.2120805280642447e-12,-7.16126401419905e-13,-2.7691403703251975e-13,1.713234976820278e-13,-9.3646334960399e-13,0.0,0.0,0.0,0.0,0.0
108011000000,5377,108011000000,,end,joint2,joint4,joint6,motortom2m,-3.604165854653729e-10,6.292513177186265e-10,5.98100236004484e-10,-5.203864006375625e-10,5.977165429271736e-10,1.2120805285737911e-12,-7.161264005429797e-13,-2.7691403619514317e-13,1.7132349841413697e-13,-9.364633487739335e-13,0.0,0.0,0.0,0.0,0.0
108031000000,5378,108031000000,,end,joint2,joint4,joint6,motortom2m,-3.604156972869532e-10,6.292495413617871e-10,5.981020123613234e-10,-5.203864006375625e-10,5.977165429271736e-10,1.2120805283229494e-12,-7.161264009747195e-13,-2.7691403660751633e-13,1.7132349805351833e-13,-9.364633491824866e-13,0.0,0.0,0.0,0.0,0.0
108051000000,5379,108051000000,,end,joint2,joint4,joint6,motortom2m,-3.604156972869532e-10,6.292495413617871e-10,5.981020123613234e-10,-5.203872888159822e-10,5.97718319284013e-10,1.212080528068718e-12,-7.16126401412254e-13,-2.769140370252613e-13,1.713234976882894e-13,-9.364633495966137e-13,0.0,0.0,0.0,0.0,0.0
108071000000,5380,108071000000,,end,joint2,joint4,joint6,motortom2m,-3.604165854653729e-10,6.292495413617871e-10,5.981020123613234e-10,-5.203872888159822e-10,5.977165429271736e-10,1.2120805283227931e-12,-7.161264009751874e-13,-2.7691403660781703e-13,1.7132349805332284e-13,-9.364633491830555e-13,0.0,0.0,0.0,0.0,0.0
108091000000,5381,108091000000,,end,joint2,joint4,joint6,motortom2m,-3.604165854653729e-10,6.292495413617871e-10,5.981020123613234e-10,-5.203872888159822e-10,5.97718319284013e-10,1.212080528320863e-12,-7.161264009781781e-13,-2.769140366107368e-13,1.7132349805068095e-13,-9.364633491856897e-13,0.0,0.0,0.0,0.0,0.0
108111000000,5382,108111000000,,end,joint2,joint4,joint6,motortom2m,-3.604156972869532e-10,6.292495413617871e-10,5.981020123613234e-10,-5.203872888159822e-10,5.977165429271736e-10,1.212080528573212e-12,-7.161264005439943e-13,-2.7691403619607153e-13,1.713234984132605e-13,-9.364633487748435e-13,0.0,0.0,0.0,0.0,0.0
108131000000,5383,108131000000,,end,joint2,joint4,joint6,motortom2m,-3.604165854653729e-10,6.292495413617871e-10,5.981020123613234e-10,-5.203872888159822e-10,5.97718319284013e-10,1.2120805288272824e-12,-7.161264001063792e-13,-2.769140357782829e-13,1.7132349877843753e-13,-9.364633483603137e-13,0.0,0.0,0.0,0.0,0.0
108151000000,5384,108151000000,,end,joint2,joint4,joint6,motortom2m,-3.604165854653729e-10,6.292513177186265e-10,5.981020123613234e-10,-5.203872888159822e-10,5.977165429271736e-10,1.2120805283214219e-12,-7.16126400977321e-13,-2.7691403661006916e-13,1.7132349805144654e-13,-9.364633491849574e-13,0.0,0.0,0.0,0.0,0.0
108171000000,5385,108171000000,,end,joint2,joint4,joint6,motortom2m,-3.604156972869532e-10,6.292513177186265e-10,5.98100236004484e-10,-5.203864006375625e-10,5.97718319284013e-10,1.2120805290832197e-12,-7.161263996654735e-13,-2.769140353576561e-13,1.7132349914619847e-13,-9.3646334794262e-13,0.0,0.0,0.0,0.0,0.0
108191000000,5386,108191000000,,end,joint2,joint4,joint6,motortom2m,-3.604165854653729e-10,6.292513177186265e-10,5.981020123613234e-10,-5.203872888159822e-10,5.977165429271736e-10,1.212080527302209e-12,-7.161264027314338e-13,-2.7691403828509294e-13,1.7132349658687904e-13,-9.364633508457087e-13,0.0,0.0,0.0,0.0,0.0
108211000000,5387,108211000000,,end,joint2,joint4,joint6,motortom2m,-3.604165854653729e-10,6.292513177186265e-10,5.981020123613234e-10,-5.203872888159822e-10,5.97718319284013e-10,1.212080527301963e-12,-7.161264027317178e-13,-2.769140382853684e-13,1.7132349658660358e-13,-9.364633508458244e-13,0.0,0.0,0.0,0.0,0.0
108231000000,5388,108231000000,,end,joint2,joint4,joint6,motortom2m,-3.604165854653729e-10,6.292513177186265e-10,5.981020123613234e-10,-5.203872888159822e-10,5.977165429271736e-10,1.2120805283196569e-12,-7.161264009801051e-13,-2.7691403661282455e-13,1.7132349804887493e-13,-9.364633491875985e-13,0.0,0.0,0.0,0.0,0.0
108251000000,5389,108251000000,,end,joint2,joint4,joint6,motortom2m,-3.604156972869532e-10,6.292513177186265e-10,5.981020123613234e-10,-5.203872888159822e-10,5.977165429271736e-10,1.212080528068954e-12,-7.161264014116377e-13,-2.7691403702481966e-13,1.7132349768869028e-13,-9.364633495960543e-13,0.0,0.0,0.0,0.0,0.0
108271000000,5390,108271000000,,end,joint2,joint4,joint6,motortom2m,-3.604165854653729e-10,6.292513177186265e-10,5.981020123613234e-10,-5.203872888159822e-10,5.97718319284013e-10,1.2120805293371401e-12,-7.161263992286016e-13,-2.769140349404267e-13,1.7132349951094776e-13,-9.364633475289734e-13,0.0,0.0,0.0,0.0,0.0
108291000000,5391,108291000000,,end,joint2,joint4,joint6,motortom2m,-3.604165854653729e-10,6.292513177186265e-10,5.981020123613234e-10,-5.203872888159822e-10,5.977165429271736e-10,1.2120805288293524e-12,-7.161264001031381e-13,-2.7691403577524723e-13,1.7132349878124643e-13,-9.364633483573134e-13,0.0,0.0,0.0,0.0,0.0
108311000000,5392,108311000000,,end,joint2,joint4,joint6,motortom2m,-3.604156972869532e-10,6.292513177186265e-10,5.981020123613234e-10,-5.203864006375625e-10,5.97718319284013e-10,1.2120805283215835e-12,-7.161264009769504e-13,-2.7691403660960953e-13,1.713234980517333e-13,-9.364633491844814e-13,0.0,0.0,0.0,0.0,0.0
108331000000,5393,108331000000,,end,joint2,joint4,joint6,motortom2m,-3.604165854653729e-10,6.292513177186265e-10,5.98100236004484e-10,-5.203872888159822e-10,5.977165429271736e-10,1.2120805283202126e-12,-7.161264009795778e-13,-2.769140366119911e-13,1.713234980497332e-13,-9.364633491872344e-13,0.0,0.0,0.0,0.0,0.0
108351000000,5394,108351000000,,end,joint2,joint4,joint6,motortom2m,-3.604165854653729e-10,6.292495413617871e-10,5.98100236004484e-10,-5.203872888159822e-10,5.97718319284013e-10,1.2120805290837803e-12,-7.161263996648885e-13,-2.7691403535678835e-13,1.7132349914699758e-13,-9.364633479422537e-13,0.0,0.0,0.0,0.0,0.0
108371000000,5395,108371000000,,end,joint2,joint4,joint6,motortom2m,-3.604156972869532e-10,6.292495413617871e-10,5.981020123613234e-10,-5.203872888159822e-10,5.977165429271736e-10,1.2120805285717515e-12,-7.161264005461672e-13,-2.769140361983921e-13,1.7132349841111137e-13,-9.36463348776758e-13,0.0,0.0,0.0,0.0,0.0
108391000000,5396,108391000000,,end,joint2,joint4,joint6,motortom2m,-3.604156972869532e-10,6.292495413617871e-10,5.981020123613234e-10,-5.203872888159822e-10,5.97718319284013e-10,1.2120805288281504e-12,-7.16126400104746e-13,-2.7691403577690643e-13,1.7132349877957894e-13,-9.364633483586692e-13,0.0,0.0,0.0,0.0,0.0
108411000000,5397,108411000000,,end,joint2,joint4,joint6,motortom2m,-3.604165854653729e-10,6.292495413617871e-10,5.981020123613234e-10,-5.203872888159822e-10,5.977165429271736e-10,1.2120805273034227e-12,-7.161264027299844e-13,-2.769140382832362e-13,1.713234965886275e-13,-9.364633508446638e-13,0.0,0.0,0.0,0.0,0.0
108431000000,5398,108431000000,,end,joint2,joint4,joint6,motortom2m,-3.604165854653729e-10,6.292495413617871e-10,5.981020123613234e-10,-5.203872888159822e-10,5.97718319284013e-10,1.2120805273039524e-12,-7.161264027288618e-13,-2.7691403828219114e-13,1.71323496589487e-13,-9.364633508434297e-13,0.0,0.0,0.0,0.0,0.0
108451000000,5399,108451000000,,end,joint2,joint4,joint6,motortom2m,-3.604156972869532e-10,6.292495413617871e-10,5.981020123613234e-10,-5.203864006375625e-10,5.977165429271736e-10,1.2120805270481494e-12,-7.161264031693682e-13,-2.769140387026976e-13,1.7132349622190114e-13,-9.364633512607543e-13,0.0,0.0,0.0,0.0,0.0
108471000000,5400,108471000000,,end,joint2,joint4,joint6,motortom2m,-3.604165854653729e-10,6.292513177186265e-10,5.981020123613234e-10,-5.203872888159822e-10,5.977165429271736e-10,1.212080527305907e-12,-7.161264027252007e-13,-2.7691403827902984e-13,1.7132349659229752e-13,-9.36463350839743e-13,0.0,0.0,0.0,0.0,0.0
108491000000,5401,108491000000,,end,joint2,joint4,joint6,motortom2m,-3.604165854653729e-10,6.292513177186265e-10,5.981020123613234e-10,-5.203872888159822e-10,5.97718319284013e-10,1.2120805278123375e-12,-7.161264018533592e-13,-2.769140374465832e-13,1.713234973200341e-13,-9.364633500141204e-13,0.0,0.0,0.0,0.0,0.0
108511000000,5402,108511000000,,end,joint2,joint4,joint6,motortom2m,-3.604156972869532e-10,6.292513177186265e-10,5.98100236004484e-10,-5.203872888159822e-10,5.977165429271736e-10,1.2120805285728246e-12,-7.161264005443935e-13,-2.769140361967089e-13,1.7132349841276028e-13,-9.36463348774984e-13,0.0,0.0,0.0,0.0,0.0
108531000000,5403,108531000000,,end,joint2,joint4,joint6,motortom2m,-3.604165854653729e-10,6.292513177186265e-10,5.981020123613234e-10,-5.203872888159822e-10,5.97718319284013e-10,1.212080529084987e-12,-7.161263996622896e-13,-2.7691403535476604e-13,1.7132349914859196e-13,-9.364633479394504e-13,0.0,0.0,0.0,0.0,0.0
108551000000,5404,108551000000,,end,joint2,joint4,joint6,motortom2m,-3.604165854653729e-10,6.292513177186265e-10,5.981020123613234e-10,-5.203872888159822e-10,5.977165429271736e-10,1.212080529591679e-12,-7.161263987903843e-13,-2.7691403452213464e-13,1.7132349987659936e-13,-9.364633471141778e-13,0.0,0.0,0.0,0.0,0.0
108571000000,5405,108571000000,,end,joint2,joint4,joint6,motortom2m,-3.604165854653729e-10,6.292513177186265e-10,5.981020123613234e-10,-5.203872888159822e-10,5.97718319284013e-10,1.2120805290847965e-12,-7.161263996628312e-13,-2.7691403535513177e-13,1.7132349914834236e-13,-9.364633479400924e-13,0.0,0.0,0.0,0.0,0.0
108591000000,5406,108591000000,,end,joint2,joint4,joint6,motortom2m,-3.604156972869532e-10,6.292513177186265e-10,5.981020123613234e-10,-5.203864006375625e-10,5.977165429271736e-10,1.212080527301681e-12,-7.16126402732759e-13,-2.769140382860865e-13,1.7132349658612537e-13,-9.364633508471127e-13,0.0,0.0,0.0,0.0,0.0
108611000000,5407,108611000000,,end,joint2,joint4,joint6,motortom2m,-3.604165854653729e-10,6.292513177186265e-10,5.981020123613234e-10,-5.203872888159822e-10,5.97718319284013e-10,1.2120805280642222e-12,-7.161264014197865e-13,-2.7691403703253954e-13,1.7132349768192905e-13,-9.364633496037477e-13,0.0,0.0,0.0,0.0,0.0
108631000000,5408,108631000000,,end,joint2,joint4,joint6,motortom2m,-3.604165854653729e-10,6.292513177186265e-10,5.981020123613234e-10,-5.203872888159822e-10,5.977165429271736e-10,1.2120805280643166e-12,-7.161264014199608e-13,-2.769140370325567e-13,1.7132349768201467e-13,-9.364633496041928e-13,0.0,0.0,0.0,0.0,0.0
108651000000,5409,108651000000,,end,joint2,joint4,joint6,motortom2m,-3.604156972869532e-10,6.292495413617871e-10,5.981020123613234e-10,-5.203872888159822e-10,5.97718319284013e-10,1.2120805273047083e-12,-7.16126402727559e-13,-2.7691403828099823e-13,1.7132349659059307e-13,-9.364633508421463e-13,0.0,0.0,0.0,0.0,0.0
108671000000,5410,108671000000,,end,joint2,joint4,joint6,motortom2m,-3.604165854653729e-10,6.292495413617871e-10,5.98100236004484e-10,-5.203872888159822e-10,5.977165429271736e-10,1.2120805290838599e-12,-7.16126399665024e-13,-2.769140353568455e-13,1.7132349914701838e-13,-9.364633479426616e-13,0.0,0.0,0.0,0.0,0.0
108691000000,5411,108691000000,,end,joint2,joint4,joint6,motortom2m,-3.604165854653729e-10,6.292495413617871e-10,5.98100236004484e-10,-5.203872888159822e-10,5.977165429271736e-10,1.2120805278134421e-12,-7.161264018518935e-13,-2.769140374448164e-13,1.713234973216406e-13,-9.364633500131322e-13,0.0,0.0,0.0,0.0,0.0
108711000000,5412,108711000000,,end,joint2,joint4,joint6,motortom2m,-3.604156972869532e-10,6.292495413617871e-10,5.981020123613234e-10,-5.203872888159822e-10,5.97718319284013e-10,1.212080527558711e-12,-7.161264022901295e-13,-2.7691403786345115e-13,1.713234969554926e-13,-9.364633504277949e-13,0.0,0.0,0.0,0.0,0.0
108731000000,5413,108731000000,,end,joint2,joint4,joint6,motortom2m,-3.604156972869532e-10,6.292495413617871e-10,5.981020123613234e-10,-5.203864006375625e-10,5.977165429271736e-10,1.2120805285731566e-12,-7.161264005439472e-13,-2.769140361961535e-13,1.7132349841311006e-13,-9.36463348774672e-13,0.0,0.0,0.0,0.0,0.0
108751000000,5414,108751000000,,end,joint2,joint4,joint6,motortom2m,-3.604165854653729e-10,6.292495413617871e-10,5.981020123613234e-10,-5.203872888159822e-10,5.97718319284013e-10,1.2120805288305964e-12,-7.161264001006826e-13,-2.7691403577292603e-13,1.7132349878308557e-13,-9.364633483548243e-13,0.0,0.0,0.0,0.0,0.0
108771000000,5415,108771000000,,end,joint2,joint4,joint6,motortom2m,-3.604165854653729e-10,6.292495413617871e-10,5.981020123613234e-10,-5.203872888159822e-10,5.977165429271736e-10,1.2120805288279373e-12,-7.161264001054601e-13,-2.769140357773804e-13,1.713234987792546e-13,-9.36463348359599e-13,0.0,0.0,0.0,0.0,0.0
108791000000,5416,108791000000,,end,joint2,joint4,joint6,motortom2m,-3.604156972869532e-10,6.292513177186265e-10,5.981020123613234e-10,-5.203872888159822e-10,5.97718319284013e-10,1.2120805293369246e-12,-7.161263992286477e-13,-2.7691403494067975e-13,1.7132349951068644e-13,-9.364633475289061e-13,0.0,0.0,0.0,0.0,0.0
108811000000,5417,108811000000,,end,joint2,joint4,joint6,motortom2m,-3.604165854653729e-10,6.292513177186265e-10,5.981020123613234e-10,-5.203872888159822e-10,5.977165429271736e-10,1.212080527557521e-12,-7.161264022922773e-13,-2.7691403786558453e-13,1.7132349695379907e-13,-9.364633504299826e-13,0.0,0.0,0.0,0.0,0.0
108831000000,5418,108831000000,,end,joint2,joint4,joint6,motortom2m,-3.604165854653729e-10,6.292513177186265e-10,5.981020123613234e-10,-5.203872888159822e-10,5.97718319284013e-10,1.2120805280664548e-12,-7.161264014159398e-13,-2.769140370289071e-13,1.7132349768518264e-13,-9.364633496000557e-13,0.0,0.0,0.0,0.0,0.0
108851000000,5419,108851000000,,end,joint2,joint4,joint6,motortom2m,-3.604156972869532e-10,6.292513177186265e-10,5.98100236004484e-10,-5.203872888159822e-10,5.977165429271736e-10,1.2120805280684512e-12,-7.161264014129332e-13,-2.769140370258591e-13,1.7132349768797558e-13,-9.364633495975075e-13,0.0,0.0,0.0,0.0,0.0
108871000000,5420,108871000000,,end,joint2,joint4,joint6,motortom2m,-3.604165854653729e-10,6.292513177186265e-10,5.981020123613234e-10,-5.203864006375625e-10,5.97718319284013e-10,1.2120805275589007e-12,-7.161264022893779e-13,-2.769140378630432e-13,1.7132349695577554e-13,-9.364633504269736e-13,0.0,0.0,0.0,0.0,0.0
108891000000,5421,108891000000,,end,joint2,joint4,joint6,motortom2m,-3.604165854653729e-10,6.292513177186265e-10,5.981020123613234e-10,-5.203872888159822e-10,5.977165429271736e-10,1.2120805290851317e-12,-7.161263996624251e-13,-2.7691403535471535e-13,1.713234991487309e-13,-9.3646334793996e-13,0.0,0.0,0.0,0.0,0.0
108911000000,5422,108911000000,,end,joint2,joint4,joint6,motortom2m,-3.604165854653729e-10,6.292513177186265e-10,5.981020123613234e-10,-5.203872888159822e-10,5.97718319284013e-10,1.2120805280685732e-12,-7.161264014124459e-13,-2.7691403702554203e-13,1.7132349768807575e-13,-9.364633495968417e-13,0.0,0.0,0.0,0.0,0.0
108931000000,5423,108931000000,,end,joint2,joint4,joint6,motortom2m,-3.604156972869532e-10,6.292513177186265e-10,5.981020123613234e-10,-5.203872888159822e-10,5.97718319284013e-10,1.2120805278131079e-12,-7.161264018522646e-13,-2.7691403744541515e-13,1.7132349732103132e-13,-9.364633500131728e-13,0.0,0.0,0.0,0.0,0.0
108951000000,5424,108951000000,,end,joint2,joint4,joint6,motortom2m,-3.604165854653729e-10,6.292513177186265e-10,5.981020123613234e-10,-5.203872888159822e-10,5.977165429271736e-10,1.2120805283204911e-12,-7.161264009790733e-13,-2.76914036611588e-13,1.7132349805005734e-13,-9.364633491866603e-13,0.0,0.0,0.0,0.0,0.0
108971000000,5425,108971000000,,end,joint2,joint4,joint6,motortom2m,-3.604165854653729e-10,6.292495413617871e-10,5.981020123613234e-10,-5.203872888159822e-10,5.97718319284013e-10,1.2120805283215746e-12,-7.161264009770427e-13,-2.7691403660966304e-13,1.7132349805169978e-13,-9.364633491845756e-13,0.0,0.0,0.0,0.0,0.0
108991000000,5426,108991000000,,end,joint2,joint4,joint6,motortom2m,-3.604156972869532e-10,6.292495413617871e-10,5.981020123613234e-10,-5.203872888159822e-10,5.977165429271736e-10,1.2120805270472695e-12,-7.16126403170964e-13,-2.7691403870424773e-13,1.713234962206426e-13,-9.364633512621348e-13,0.0,0.0,0.0,0.0,0.0
109011000000,5427,109011000000,,end,joint2,joint4,joint6,motortom2m,-3.604165854653729e-10,6.292495413617871e-10,5.98100236004484e-10,-5.203864006375625e-10,5.97718319284013e-10,1.212080528065277e-12,-7.161264014181404e-13,-2.7691403703077674e-13,1.7132349768351636e-13,-9.364633496022787e-13,0.0,0.0,0.0,0.0,0.0
109031000000,5428,109031000000,,end,joint2,joint4,joint6,motortom2m,-3.604165854653729e-10,6.292495413617871e-10,5.98100236004484e-10,-5.203872888159822e-10,5.977165429271736e-10,1.2120805273020434e-12,-7.161264027323733e-13,-2.7691403828542333e-13,1.7132349658677948e-13,-9.364633508469313e-13,0.0,0.0,0.0,0.0,0.0
109051000000,5429,109051000000,,end,joint2,joint4,joint6,motortom2m,-3.604156972869532e-10,6.292495413617871e-10,5.981020123613234e-10,-5.203872888159822e-10,5.97718319284013e-10,1.2120805270479473e-12,-7.161264031692268e-13,-2.7691403870283147e-13,1.7132349622162064e-13,-9.36463351260214e-13,0.0,0.0,0.0,0.0,0.0
109071000000,5430,109071000000,,end,joint2,joint4,joint6,motortom2m,-3.604156972869532e-10,6.292495413617871e-10,5.981020123613234e-10,-5.203872888159822e-10,5.977165429271736e-10,1.2120805275573053e-12,-7.161264022928421e-13,-2.769140378658905e-13,1.713234969534279e-13,-9.364633504307244e-13,0.0,0.0,0.0,0.0,0.0
109091000000,5431,109091000000,,end,joint2,joint4,joint6,motortom2m,-3.604165854653729e-10,6.292495413617871e-10,5.981020123613234e-10,-5.203872888159822e-10,5.97718319284013e-10,1.2120805273033799e-12,-7.161264027297587e-13,-2.769140382830757e-13,1.7132349658866244e-13,-9.364633508442456e-13,0.0,0.0,0.0,0.0,0.0
109111000000,5432,109111000000,,end,joint2,joint4,joint6,motortom2m,-3.604165854653729e-10,6.292513177186265e-10,5.981020123613234e-10,-5.203872888159822e-10,5.977165429271736e-10,1.2120805288296791e-12,-7.161264001022304e-13,-2.769140357746521e-13,1.7132349878170667e-13,-9.364633483563525e-13,0.0,0.0,0.0,0.0,0.0
109131000000,5433,109131000000,,end,joint2,joint4,joint6,motortom2m,-3.604156972869532e-10,6.292513177186265e-10,5.981020123613234e-10,-5.203872888159822e-10,5.97718319284013e-10,1.2120805280663265e-12,-7.161264014160838e-13,-2.769140370291242e-13,1.7132349768495969e-13,-9.364633496001898e-13,0.0,0.0,0.0,0.0,0.0
109151000000,5434,109151000000,,end,joint2,joint4,joint6,motortom2m,-3.604165854653729e-10,6.292513177186265e-10,5.981020123613234e-10,-5.203864006375625e-10,5.977165429271736e-10,1.2120805290827007e-12,-7.161263996665719e-13,-2.7691403535865435e-13,1.7132349914534887e-13,-9.364633479439097e-13,0.0,0.0,0.0,0.0,0.0
109171000000,5435,109171000000,,end,joint2,joint4,joint6,motortom2m,-3.604165854653729e-10,6.292513177186265e-10,5.981020123613234e-10,-5.203872888159822e-10,5.977165429271736e-10,1.2120805290835848e-12,-7.161263996651821e-13,-2.7691403535724394e-13,1.7132349914662478e-13,-9.36463347942503e-13,0.0,0.0,0.0,0.0,0.0
109191000000,5436,109191000000,,end,joint2,joint4,joint6,motortom2m,-3.604156972869532e-10,6.292513177186265e-10,5.98100236004484e-10,-5.203872888159822e-10,5.97718319284013e-10,1.2120805290838207e-12,-7.161263996645496e-13,-2.769140353566712e-13,1.7132349914706705e-13,-9.364633479417298e-13,0.0,0.0,0.0,0.0,0.0
109211000000,5437,109211000000,,end,joint2,joint4,joint6,motortom2m,-3.604165854653729e-10,6.292513177186265e-10,5.981020123613234e-10,-5.203872888159822e-10,5.977165429271736e-10,1.2120805280642356e-12,-7.161264014196411e-13,-2.7691403703255105e-13,1.7132349768185816e-13,-9.364633496036114e-13,0.0,0.0,0.0,0.0,0.0
109231000000,5438,109231000000,,end,joint2,joint4,joint6,motortom2m,-3.604165854653729e-10,6.292513177186265e-10,5.981020123613234e-10,-5.203872888159822e-10,5.97718319284013e-10,1.2120805273033393e-12,-7.161264027297112e-13,-2.7691403828326975e-13,1.7132349658851926e-13,-9.364633508439687e-13,0.0,0.0,0.0,0.0,0.0
109251000000,5439,109251000000,,end,joint2,joint4,joint6,motortom2m,-3.604165854653729e-10,6.292513177186265e-10,5.981020123613234e-10,-5.203872888159822e-10,5.977165429271736e-10,1.2120805270489782e-12,-7.161264031679427e-13,-2.769140387015279e-13,1.713234962229735e-13,-9.364633512591892e-13,0.0,0.0,0.0,0.0,0.0
109271000000,5440,109271000000,,end,joint2,joint4,joint6,motortom2m,-3.604156972869532e-10,6.292513177186265e-10,5.981020123613234e-10,-5.203872888159822e-10,5.97718319284013e-10,1.2120805288295576e-12,-7.161264001024513e-13,-2.769140357747135e-13,1.713234987815861e-13,-9.364633483564646e-13,0.0,0.0,0.0,0.0,0.0
109291000000,5441,109291000000,,end,joint2,joint4,joint6,motortom2m,-3.604165854653729e-10,6.292495413617871e-10,5.981020123613234e-10,-5.203864006375625e-10,5.977165429271736e-10,1.2120805285746353e-12,-7.161264005414881e-13,-2.7691403619380405e-13,1.713234984152509e-13,-9.36463348772407e-13,0.0,0.0,0.0,0.0,0.0
